[
  {
    "pickPointId": 3926,
    "storeId": 20000000009856,
    "name": "HÜRRIYET MH CEYHAN ADANA M",
    "town": "Ceyhan",
    "city": "Adana",
    "address": "HÜRRİYET MAH. 238. SOK.B BLOKNO:6/2-2/3",
    "lat": 37.029603,
    "lon": 35.81781
  },
  {
    "pickPointId": 3803,
    "storeId": 20000000005238,
    "name": "NAMIK KEMAL MAH CEYHAN ADANA M",
    "town": "Ceyhan",
    "city": "Adana",
    "address": "Namık Kemal Mah.Albay Kemal Göktaş Sok.",
    "lat": 37.018706,
    "lon": 35.821748
  },
  {
    "pickPointId": 3435,
    "storeId": 20000000009169,
    "name": "UĞUR MUMCU BLV CEYHAN ADANA MM",
    "town": "Ceyhan",
    "city": "Adana",
    "address": "NAMIK KEMAL MAH. UĞUR MUMCU BULV.",
    "lat": 37.01062873,
    "lon": 35.81618238
  },
  {
    "pickPointId": 2434,
    "storeId": 20000000007663,
    "name": "KARATAŞ MERKEZ ADANA M",
    "town": "Karataş",
    "city": "Adana",
    "address": "Yeni Mah. Aratürk Cad C Blok No:26/A-B",
    "lat": 36.567844,
    "lon": 35.383717
  },
  {
    "pickPointId": 2624,
    "storeId": 20000000006416,
    "name": "KARACAOĞLAN KOZAN ADANA M",
    "town": "Kozan",
    "city": "Adana",
    "address": "Karacaoğlan Mah. Şehit Hüseyin Soydan Cad",
    "lat": 37.461471,
    "lon": 35.810848
  },
  {
    "pickPointId": 4134,
    "storeId": 20000000008968,
    "name": "BALCALI M ADANA MİGROS",
    "town": "Sarıçam",
    "city": "Adana",
    "address": "Balcalı Mah. Mithat Özsan Bulv. No:29",
    "lat": 37.0554,
    "lon": 35.358947
  },
  {
    "pickPointId": 3671,
    "storeId": 20000000008278,
    "name": "GÜLTEPE MH. SARIÇAM ADANA M",
    "town": "Sarıçam",
    "city": "Adana",
    "address": "Gültepe Mah. 810 Sokak. A Blok No:4AD",
    "lat": 37.059874,
    "lon": 35.398994
  },
  {
    "pickPointId": 2285,
    "storeId": 20000000007703,
    "name": "SARIÇAM ADANA MM MİGROS",
    "town": "Sarıçam",
    "city": "Adana",
    "address": "Mehmet Akif Ersoy Mah. 126 Sok. No:2 Zemin Kat 2",
    "lat": 37.019947,
    "lon": 35.398659
  },
  {
    "pickPointId": 3804,
    "storeId": 20000000009263,
    "name": "SOFULU SARIÇAM ADANA M MİGROS",
    "town": "Sarıçam",
    "city": "Adana",
    "address": "GÜLTEPE MAH. ELİF SU ULUDAĞ CAD.",
    "lat": 37.03395798,
    "lon": 35.39828561
  },
  {
    "pickPointId": 3805,
    "storeId": 20000000007897,
    "name": "Y.BEYAZIT MH. SARIÇAM ADANA M",
    "town": "Sarıçam",
    "city": "Adana",
    "address": "Yıldırım Beyazıt Mah Kozan Bulv A Blok",
    "lat": 37.025662,
    "lon": 35.399941
  },
  {
    "pickPointId": 2334,
    "storeId": 20000000007318,
    "name": "ÇARKIPARE MH. SARIÇAM ADANA M",
    "town": "Sarıçam",
    "city": "Adana",
    "address": "Çarkıpare Mah. Elif Su Uludağ Cad. No:206A",
    "lat": 37.060695,
    "lon": 35.382201
  },
  {
    "pickPointId": 3425,
    "storeId": 20000000008924,
    "name": "ÇINARLI MH SARIÇAM ADANA M",
    "town": "Sarıçam",
    "city": "Adana",
    "address": "ÇINARLI MAH. 1869 SOK.",
    "lat": 37.077785,
    "lon": 35.393703
  },
  {
    "pickPointId": 560,
    "storeId": 20000000006357,
    "name": "ADANA 01 BURDA MMM MİGROS",
    "town": "Seyhan",
    "city": "Adana",
    "address": "Ahmet Remzi Yüreğir Mh.Erdal Acet Cd.No:1/1",
    "lat": 36.993581,
    "lon": 35.307869
  },
  {
    "pickPointId": 3737,
    "storeId": 20000000003028,
    "name": "ADANA KÜÇÜKSAAT M MİGROS",
    "town": "Seyhan",
    "city": "Adana",
    "address": "Kuruköprü Mah.Sefa Özler Cad.No:25/1A",
    "lat": 36.987928,
    "lon": 35.323703
  },
  {
    "pickPointId": 4157,
    "storeId": 20000000002261,
    "name": "CEMALPAŞA M MİGROS",
    "town": "Seyhan",
    "city": "Adana",
    "address": "Cemalpaşa Mah.Toros Cad.Gültekin Apt. Altı no:35/A",
    "lat": 37.001592,
    "lon": 35.327702
  },
  {
    "pickPointId": 275,
    "storeId": 20000000000372,
    "name": "GALLERİA ADANA MM MİGROS",
    "town": "Seyhan",
    "city": "Adana",
    "address": "Cemalpaşa Mah. Fuzuli Cad. No:140/434 Galeria",
    "lat": 37.002458,
    "lon": 35.334703
  },
  {
    "pickPointId": 4155,
    "storeId": 20000000004446,
    "name": "GÜRSELPAŞA ADANA M MİGROS",
    "town": "Seyhan",
    "city": "Adana",
    "address": "Gürselpaşa Mah.Aliya İzzet Begoviç Blv.No:16/A",
    "lat": 37.022197,
    "lon": 35.257747
  },
  {
    "pickPointId": 4569,
    "storeId": 20000000009420,
    "name": "KIYI BOYU SEYHAN ADANA M",
    "town": "Seyhan",
    "city": "Adana",
    "address": "AYDINLAR MAHALLESİ GÜNEY KIYI BOYU CADDESİ A BLOK",
    "lat": 37.0086591,
    "lon": 35.2684975
  },
  {
    "pickPointId": 3806,
    "storeId": 20000000006376,
    "name": "MİTHATPAŞA ADANA M MİGROS",
    "town": "Seyhan",
    "city": "Adana",
    "address": "Mithatpaşa Mah. Aplarslan Türkeş Bulv. No:4A",
    "lat": 37.003831,
    "lon": 35.311958
  },
  {
    "pickPointId": 3937,
    "storeId": 20000000009855,
    "name": "TELLİDERE SEYHAN ADANA M",
    "town": "Seyhan",
    "city": "Adana",
    "address": "TELLİDERE MAH. MÜCAHİTLER CAD.NO:308",
    "lat": 37.027929,
    "lon": 35.290374
  },
  {
    "pickPointId": 1328,
    "storeId": 20000000002265,
    "name": "YENİ BARAJ ADANA M MİGROS",
    "town": "Seyhan",
    "city": "Adana",
    "address": "Yenibaraj Mah.Şht.Yzb. Bülent Angın Bulv. No:110/A",
    "lat": 37.027024,
    "lon": 35.314254
  },
  {
    "pickPointId": 1978,
    "storeId": 20000000002264,
    "name": "YENİ VİLAYET M MİGROS",
    "town": "Seyhan",
    "city": "Adana",
    "address": "Kurtuluş Mah Mehmet Nuri Sabuncu Bulvarı",
    "lat": 36.999755,
    "lon": 35.316566
  },
  {
    "pickPointId": 288,
    "storeId": 20000000004039,
    "name": "İKİBİN EVLER ADANA MM MİGROS",
    "town": "Seyhan",
    "city": "Adana",
    "address": "İkibin Evler Mh Dr Sadık Ahmet BlvAşiroğlu Plaza-1",
    "lat": 37.027222,
    "lon": 35.254722
  },
  {
    "pickPointId": 287,
    "storeId": 20000000005829,
    "name": "YUMURTALIK AYAS ADANA M",
    "town": "Yumurtalık",
    "city": "Adana",
    "address": "Ayas Mah. Metehan Sok. A Blok No:3/A",
    "lat": 36.772356,
    "lon": 35.790871
  },
  {
    "pickPointId": 3851,
    "storeId": 20000000007981,
    "name": "ATAKENT YÜREĞİR ADANA M",
    "town": "Yüreğir",
    "city": "Adana",
    "address": "Atakent Mah. Ege Bağatur Bulv No:8/1A",
    "lat": 36.987421,
    "lon": 35.367515
  },
  {
    "pickPointId": 3381,
    "storeId": 20000000005484,
    "name": "OPTİMUM AVM ADANA MMM MİGROS",
    "town": "Yüreğir",
    "city": "Adana",
    "address": "Optimum Adana AVM Hacı Sabancı Bulv. No:28/B1",
    "lat": 36.991049,
    "lon": 35.340405
  },
  {
    "pickPointId": 4143,
    "storeId": 20000000008047,
    "name": "PTT EVLERİ ADANA M MİGROS",
    "town": "Yüreğir",
    "city": "Adana",
    "address": "PTT Evleri Mah. Mimoza Cad. A Blok No:5/2A-2B",
    "lat": 37.018651,
    "lon": 35.365205
  },
  {
    "pickPointId": 4149,
    "storeId": 20000000006499,
    "name": "SERİNEVLER YÜREĞİR ADANA M",
    "town": "Yüreğir",
    "city": "Adana",
    "address": "Serinevler Mah.Mustafa Kemal Paşa Bulv.Manolya Sk.",
    "lat": 37.008,
    "lon": 35.356975
  },
  {
    "pickPointId": 280,
    "storeId": 20000000005089,
    "name": "YÜREĞİR ADANA MM MİGROS",
    "town": "Yüreğir",
    "city": "Adana",
    "address": "Selahattin Eyyubi Mah.Mustafa kemalpaşa Bulv.",
    "lat": 37.005221,
    "lon": 35.364287
  },
  {
    "pickPointId": 4147,
    "storeId": 20000000006893,
    "name": "100.YIL ADANA M MIGROS",
    "town": "Çukurova",
    "city": "Adana",
    "address": "Yüzüncüyıl Mah.Fazlı Meto Bul.No:90A 4KA City D Bl",
    "lat": 37.033843,
    "lon": 35.24085
  },
  {
    "pickPointId": 853,
    "storeId": 20000000003034,
    "name": "ADANA KURTTEPE MM MIGROS",
    "town": "Çukurova",
    "city": "Adana",
    "address": "Huzurevleri Mah. T.Özal Bulvarı No: 186/A",
    "lat": 37.049006,
    "lon": 35.277719
  },
  {
    "pickPointId": 855,
    "storeId": 20000000009488,
    "name": "BARIŞ MANÇO BULVARI ADANA M",
    "town": "Çukurova",
    "city": "Adana",
    "address": "TOROS MAH. BARIŞ MANÇO BULV.",
    "lat": 37.046006,
    "lon": 35.294008
  },
  {
    "pickPointId": 4312,
    "storeId": 20000000004973,
    "name": "BELEDİYE EVLERİ ADANA M MİGROS",
    "town": "Çukurova",
    "city": "Adana",
    "address": "Belediye Evleri Mah. Hilmi Kürklü Bulv. NO:38/A",
    "lat": 37.034787,
    "lon": 35.262996
  },
  {
    "pickPointId": 852,
    "storeId": 20000000008974,
    "name": "BEYAZEVLER CUKUROVA ADANA M",
    "town": "Çukurova",
    "city": "Adana",
    "address": "Beyazevler mah. Devlet bahçeli bulv. No:50/A",
    "lat": 37.034445,
    "lon": 35.320293
  },
  {
    "pickPointId": 743,
    "storeId": 20000000006346,
    "name": "DR SADIK AHMET BULV. ADANA MM",
    "town": "Çukurova",
    "city": "Adana",
    "address": "Yüzüncüyıl Mah.Dr. Sadık Ahmet Blv.No: 91/M F/Blok",
    "lat": 37.051187,
    "lon": 35.25079
  },
  {
    "pickPointId": 3832,
    "storeId": 20000000008155,
    "name": "FUAR ALANI ADANA M MİGROS",
    "town": "Çukurova",
    "city": "Adana",
    "address": "Yüzüncüyıl Mah Prof Dr Necmettin Erbakan Bulv",
    "lat": 37.057542,
    "lon": 35.242037
  },
  {
    "pickPointId": 2808,
    "storeId": 20000000008976,
    "name": "SÜLEYMAN DEMİREL BULV. ADANA M",
    "town": "Çukurova",
    "city": "Adana",
    "address": "YURT MAH. SÜLEYMAN DEMİR BUL. NO:57B",
    "lat": 37.056401,
    "lon": 35.282501
  },
  {
    "pickPointId": 273,
    "storeId": 20000000000368,
    "name": "TOROS ADANA M MİGROS",
    "town": "Çukurova",
    "city": "Adana",
    "address": "Toros Mahallesi Şehitler  Bulvarı No: 57/A",
    "lat": 37.038959,
    "lon": 35.304638
  },
  {
    "pickPointId": 289,
    "storeId": 20000000006452,
    "name": "TURGUT ÖZAL BULV ADANA MM",
    "town": "Çukurova",
    "city": "Adana",
    "address": "Güzelyalı Mah. Turgut Özal Bulv.No:38/A",
    "lat": 37.040247,
    "lon": 35.314937
  },
  {
    "pickPointId": 2023,
    "storeId": 20000000008967,
    "name": "ÇUKUROVA ADANA M MİGROS",
    "town": "Çukurova",
    "city": "Adana",
    "address": "Huzurevleri Mah. Türkmenbaşı Blv. NO:6/C Rıza Şen",
    "lat": 37.028586,
    "lon": 35.275002
  },
  {
    "pickPointId": 3837,
    "storeId": 20000000009635,
    "name": "ABUZER BEHİŞ ADIYAMAN M",
    "town": "Merkez",
    "city": "Adıyaman",
    "address": "Altınşehir Mah. Gölbaşı Yolu No:38 A",
    "lat": 37.737154,
    "lon": 38.219906
  },
  {
    "pickPointId": 2097,
    "storeId": 20000000005900,
    "name": "ADIYAMANPARK MM MİGROS",
    "town": "Merkez",
    "city": "Adıyaman",
    "address": "YeniSanayi Mah. 2819 Sokak AVM Sitesi No:70",
    "lat": 37.750222,
    "lon": 38.238869
  },
  {
    "pickPointId": 425,
    "storeId": 20000000005048,
    "name": "ATATÜRK BULVARI  ADIYAMAN MM",
    "town": "Merkez",
    "city": "Adıyaman",
    "address": "Barbaros Hayrettin Mah.Atatürk Bulvarı No:79",
    "lat": 37.757112,
    "lon": 38.253412
  },
  {
    "pickPointId": 3047,
    "storeId": 20000000008421,
    "name": "MJET BOLVADİN AFYONKARAHİSAR",
    "town": "Bolvadin",
    "city": "Afyonkarahisar",
    "address": "Lala Sinan Paşa Mah İhsaniye Cad No:3/7",
    "lat": 38.71167,
    "lon": 31.044361
  },
  {
    "pickPointId": 1509,
    "storeId": 20000000003268,
    "name": "DİNAR AFYON M MİGROS",
    "town": "Dinar",
    "city": "Afyonkarahisar",
    "address": "Dinaryum Avm CamiKebir mah.Yeni garaj mevkii no 5",
    "lat": 38.065637,
    "lon": 30.165946
  },
  {
    "pickPointId": 3022,
    "storeId": 20000000006445,
    "name": "MJET TOKİ DİNAR AFYON",
    "town": "Dinar",
    "city": "Afyonkarahisar",
    "address": "Korubaşı Mah. Acar Sok.Abdullah Acar B2 Blok No:28",
    "lat": 38.052096,
    "lon": 30.1638
  },
  {
    "pickPointId": 2189,
    "storeId": 20000000008930,
    "name": "EMİRDAĞ AFYON M MİGROS",
    "town": "Emirdağ",
    "city": "Afyonkarahisar",
    "address": "YENİ MAHALLE ESKİŞEHİR CADDESİ NO:48/1",
    "lat": 39.021224,
    "lon": 31.152243
  },
  {
    "pickPointId": 3176,
    "storeId": 20000000007757,
    "name": "İNKILAP MH. EMİRDAĞ AFYON M",
    "town": "Emirdağ",
    "city": "Afyonkarahisar",
    "address": "İnkılap Mah. Selmanı Farisi Cad. No:69A",
    "lat": 39.024182,
    "lon": 31.163336
  },
  {
    "pickPointId": 431,
    "storeId": 20000000002890,
    "name": "5M AFYON",
    "town": "Merkez",
    "city": "Afyonkarahisar",
    "address": "Dörtyol Mah. Turgut Özal Cad. No:40/1",
    "lat": 38.793923,
    "lon": 30.458264
  },
  {
    "pickPointId": 29,
    "storeId": 20000000005239,
    "name": "ADNAN KAHVECİ CADDESİ AFYON MM",
    "town": "Merkez",
    "city": "Afyonkarahisar",
    "address": "Selçuklu Mah.Adnan Kahvesi Cad.No:42/M",
    "lat": 38.777406,
    "lon": 30.520979
  },
  {
    "pickPointId": 3119,
    "storeId": 20000000006755,
    "name": "AFYONKARAHİSAR TRİO MM MİGROS",
    "town": "Merkez",
    "city": "Afyonkarahisar",
    "address": "Cumhuriyet Mah.Afyon Çevre Yolu No:3030",
    "lat": 38.782449,
    "lon": 30.499494
  },
  {
    "pickPointId": 1513,
    "storeId": 20000000003298,
    "name": "ATAKÖY AFYON MM MİGROS",
    "town": "Merkez",
    "city": "Afyonkarahisar",
    "address": "Esentepe Mah. Adnan Menderes Bul. No:74",
    "lat": 38.732159,
    "lon": 30.562956
  },
  {
    "pickPointId": 4221,
    "storeId": 20000000008650,
    "name": "GÜNEŞ HATUN CADDESİ AFYON M",
    "town": "Merkez",
    "city": "Afyonkarahisar",
    "address": "Selçuklu Mah. 1473 Sok. No:2/3A",
    "lat": 38.776419,
    "lon": 30.511284
  },
  {
    "pickPointId": 2690,
    "storeId": 20000000007995,
    "name": "KANLICA MH AFYONKARAHİSAR M",
    "town": "Merkez",
    "city": "Afyonkarahisar",
    "address": "Kanlıca Mah. 250 Sokak No:3A",
    "lat": 38.741316,
    "lon": 30.547831
  },
  {
    "pickPointId": 2689,
    "storeId": 20000000008995,
    "name": "UYDUKENT AFYON M MİGROS",
    "town": "Merkez",
    "city": "Afyonkarahisar",
    "address": "Selçuklu Mah. Adnan Kahveci Cad. No:19/A/Z",
    "lat": 38.7700282,
    "lon": 30.53805
  },
  {
    "pickPointId": 1510,
    "storeId": 20000000003279,
    "name": "YEŞİLYOL AFYON M MİGROS",
    "town": "Merkez",
    "city": "Afyonkarahisar",
    "address": "Cumhuriyet Mah. Yeşil Yol Cad. No:33/A",
    "lat": 38.755098,
    "lon": 30.545653
  },
  {
    "pickPointId": 1921,
    "storeId": 20000000007092,
    "name": "BULVAR SANDIKLI AFYON M MİGROS",
    "town": "Sandıklı",
    "city": "Afyonkarahisar",
    "address": "Çakır Mah. M.Kemal Cad. No:28A",
    "lat": 38.461675,
    "lon": 30.261198
  },
  {
    "pickPointId": 3488,
    "storeId": 20000000003913,
    "name": "SANDIKLI AFYON M MİGROS",
    "town": "Sandıklı",
    "city": "Afyonkarahisar",
    "address": "Ece Mah İstasyon Cd No 51/A-B",
    "lat": 38.461946,
    "lon": 30.270555
  },
  {
    "pickPointId": 4561,
    "storeId": 20000000009749,
    "name": "127.CADDE AKSARAY MM MİGROS",
    "town": "Merkez",
    "city": "Aksaray",
    "address": "Yunus Emre Mahallesi, 127.Cadde, No:136",
    "lat": 38.4077461,
    "lon": 33.9957175
  },
  {
    "pickPointId": 474,
    "storeId": 20000000002477,
    "name": "AKSARAY MM MIGROS",
    "town": "Merkez",
    "city": "Aksaray",
    "address": "Ereğli Mah. 7/Atatürk Bul. No:100/A-A",
    "lat": 38.367506,
    "lon": 34.028612
  },
  {
    "pickPointId": 4324,
    "storeId": 20000000006947,
    "name": "AKSARAY TAŞPAZARI MM MİGROS",
    "town": "Merkez",
    "city": "Aksaray",
    "address": "Taşpazar Mah. Atatürk Blv. No:3",
    "lat": 38.365131,
    "lon": 34.012116
  },
  {
    "pickPointId": 3893,
    "storeId": 20000000009017,
    "name": "BÜYÜKBÖLCEK AKSARAY M MİGROS",
    "town": "Merkez",
    "city": "Aksaray",
    "address": "Büyükbölcek Mah Büyükbölcek Cad No:69",
    "lat": 38.373848,
    "lon": 34.01294
  },
  {
    "pickPointId": 2655,
    "storeId": 20000000008143,
    "name": "HASTANE AKSARAY M MİGROS",
    "town": "Merkez",
    "city": "Aksaray",
    "address": "Tacin Mah 91. Cadde No:37/B",
    "lat": 38.367493,
    "lon": 33.997639
  },
  {
    "pickPointId": 4224,
    "storeId": 20000000007849,
    "name": "MEHMET AKİF AKSARAY M MİGROS",
    "town": "Merkez",
    "city": "Aksaray",
    "address": "Mehmet Akif Ersoy Mah. 5303 Sok. No:1 A",
    "lat": 38.355732,
    "lon": 34.014463
  },
  {
    "pickPointId": 2654,
    "storeId": 20000000007699,
    "name": "PARK SİTE AKSARAY MM MİGROS",
    "town": "Merkez",
    "city": "Aksaray",
    "address": "Taşpazar Mah. 32/Ebulfeyz Elçibey Cad. No:29/1-B01",
    "lat": 38.367113,
    "lon": 34.015624
  },
  {
    "pickPointId": 3100,
    "storeId": 20000000008018,
    "name": "ORTAKÖY AKSARAY M",
    "town": "Ortaköy",
    "city": "Aksaray",
    "address": "İstiklal Mah. İhsan Özmen Bulv No.205/B",
    "lat": 38.730803,
    "lon": 34.033696
  },
  {
    "pickPointId": 3014,
    "storeId": 20000000008087,
    "name": "GÜMÜŞHACIKÖY AMASYA M MİGROS",
    "town": "Gümüşhacıköy",
    "city": "Amasya",
    "address": "Artıkabat Mah. Zübeyde Hanım Bulvarı No:65",
    "lat": 40.878656,
    "lon": 35.218394
  },
  {
    "pickPointId": 462,
    "storeId": 20000000006199,
    "name": "AMASYA GÜZELYALI MM MİGROS",
    "town": "Merkez",
    "city": "Amasya",
    "address": "Bahçeleriçi Mah. Zafer Sokak No:12-14/A-B",
    "lat": 40.667533,
    "lon": 35.839295
  },
  {
    "pickPointId": 17,
    "storeId": 20000000002583,
    "name": "AMASYA MM MIGROS",
    "town": "Merkez",
    "city": "Amasya",
    "address": "Hacı İlyas Mh.Mustafa Kemal Paşa Cd. No:128;/A-B-C",
    "lat": 40.649982,
    "lon": 35.823356
  },
  {
    "pickPointId": 1686,
    "storeId": 20000000008533,
    "name": "AŞKIN AMASYA M MİGROS",
    "town": "Merkez",
    "city": "Amasya",
    "address": "Hacılar Meydanı Mah. Sefa Sok.",
    "lat": 40.640666,
    "lon": 35.805341
  },
  {
    "pickPointId": 3852,
    "storeId": 20000000009556,
    "name": "DR SADIK AHMET CD AMASYA MM",
    "town": "Merkez",
    "city": "Amasya",
    "address": "Hacılar Meydanı Mahallesi, Sadık Ahmet Caddesi,",
    "lat": 40.6433407,
    "lon": 35.8030457
  },
  {
    "pickPointId": 3928,
    "storeId": 20000000009861,
    "name": "HASTANE AMASYA M",
    "town": "Merkez",
    "city": "Amasya",
    "address": "ELLİBEŞEVLER MH.C.TOPALA SK.A1 BLK.NO3/1A206835964",
    "lat": 40.668196,
    "lon": 35.846167
  },
  {
    "pickPointId": 77,
    "storeId": 20000000008941,
    "name": "ÜNİVERSİTE MERKEZ AMASYA M",
    "town": "Merkez",
    "city": "Amasya",
    "address": "Akbilek Mah. Kemal Nehrozoğlu Cad. No:37/A-B",
    "lat": 40.652194,
    "lon": 35.801654
  },
  {
    "pickPointId": 2860,
    "storeId": 20000000009032,
    "name": "CUMHURİYET MERZİFON AMASYA M",
    "town": "Merzifon",
    "city": "Amasya",
    "address": "Hacıhasan Mah. Cumhuriyet Cad. No:87/A",
    "lat": 40.871051,
    "lon": 35.464351
  },
  {
    "pickPointId": 2665,
    "storeId": 20000000007908,
    "name": "HACI HASAN MERZİFON AMASYA MM",
    "town": "Merzifon",
    "city": "Amasya",
    "address": "Hacı Hasan Mah. Cumhuriyet Cad. No: 55-B M",
    "lat": 40.869412,
    "lon": 35.46486
  },
  {
    "pickPointId": 2774,
    "storeId": 20000000007479,
    "name": "MEHMETÇİK CD. MERZİFON AMASYA",
    "town": "Merzifon",
    "city": "Amasya",
    "address": "Bahçelievler Mah. Mehmetçik Cd. 71a",
    "lat": 40.871295,
    "lon": 35.449871
  },
  {
    "pickPointId": 4227,
    "storeId": 20000000007448,
    "name": "SULUOVA AMASYA M MİGROS",
    "town": "Suluova",
    "city": "Amasya",
    "address": "Şeker Mah. Millet Cad. No:19/2A-2B",
    "lat": 40.827339,
    "lon": 35.645317
  },
  {
    "pickPointId": 3011,
    "storeId": 20000000007971,
    "name": "TAŞOVA AMASYA M MİGROS",
    "town": "Taşova",
    "city": "Amasya",
    "address": "Cumhuriyet Mah. Atatürk Bulv. No:53/C-D-E",
    "lat": 40.762996,
    "lon": 36.320071
  },
  {
    "pickPointId": 3146,
    "storeId": 20000000007752,
    "name": "BEYAZIT MH. AKYURT ANKARA M",
    "town": "Akyurt",
    "city": "Ankara",
    "address": "Beyazıt Mah. Nurettin Cankurtaran Cad. No:12B-C",
    "lat": 40.132506,
    "lon": 33.083727
  },
  {
    "pickPointId": 2300,
    "storeId": 20000000007774,
    "name": "F. ÇELİK ALTINDAĞ ANKARA M",
    "town": "Altındağ",
    "city": "Ankara",
    "address": "Başpınar Mah. 1048. Cad. No:182/A-B-C",
    "lat": 39.973396,
    "lon": 32.935499
  },
  {
    "pickPointId": 2438,
    "storeId": 20000000008169,
    "name": "GÜNEŞEVLER MH. ALTINDAĞ ANK.MM",
    "town": "Altındağ",
    "city": "Ankara",
    "address": "Güneşevler Mah. Mehmet Akif Ersoy Cad. No:38/B",
    "lat": 39.968747,
    "lon": 32.90289
  },
  {
    "pickPointId": 1755,
    "storeId": 20000000006600,
    "name": "KUZEYKENT ANKARA MM MİGROS",
    "town": "Altındağ",
    "city": "Ankara",
    "address": "Baraj Mah.Beylerbeyi Sok.",
    "lat": 40.009228,
    "lon": 32.901653
  },
  {
    "pickPointId": 3079,
    "storeId": 20000000008424,
    "name": "AYAŞ ANKARA M MİGROS",
    "town": "Ayaş",
    "city": "Ankara",
    "address": "Hacı Recep Mahallesi Ayaş Ankara Bulvarı No: 27A",
    "lat": 40.019202,
    "lon": 32.321905
  },
  {
    "pickPointId": 2692,
    "storeId": 20000000007465,
    "name": "BAŞAĞAÇ BEYPAZARI ANKARA M",
    "town": "Beypazarı",
    "city": "Ankara",
    "address": "Başağaç Mah. Alparslan Türkeş Blv.",
    "lat": 40.151434,
    "lon": 31.900394
  },
  {
    "pickPointId": 3379,
    "storeId": 20000000009501,
    "name": "MJET BEYPAZARI ANKARA",
    "town": "Beypazarı",
    "city": "Ankara",
    "address": "KURTULUŞ MAH. İRFAN GÜMÜŞEL CAD.",
    "lat": 40.167572,
    "lon": 31.920933
  },
  {
    "pickPointId": 1756,
    "storeId": 20000000006468,
    "name": "ELMADAĞ ANKARA M MİGROS",
    "town": "Elmadağ",
    "city": "Ankara",
    "address": "Kemalpaşa Mah.Altınbaş Cad.No:2-C",
    "lat": 39.921542,
    "lon": 33.227586
  },
  {
    "pickPointId": 3816,
    "storeId": 20000000007810,
    "name": "MJET HASANOĞLAN ELMADAĞ ANKARA",
    "town": "Elmadağ",
    "city": "Ankara",
    "address": "Hasanoğlan Bahçelievler Mah. Menderes Bulvarı",
    "lat": 39.973596,
    "lon": 33.164019
  },
  {
    "pickPointId": 397,
    "storeId": 20000000003168,
    "name": "5M ERYAMAN ANKARA",
    "town": "Etimesgut",
    "city": "Ankara",
    "address": "Eryaman Mah. 19 Mayıs Cad. No: 5",
    "lat": 39.979837,
    "lon": 32.625355
  },
  {
    "pickPointId": 2421,
    "storeId": 20000000008340,
    "name": "AHİ MESUT MH. ANKARA M MİGROS",
    "town": "Etimesgut",
    "city": "Ankara",
    "address": "Ahi Mesut Mah. Zirve Cad. No:18/1",
    "lat": 39.931557,
    "lon": 32.63651
  },
  {
    "pickPointId": 66,
    "storeId": 20000000004615,
    "name": "ARSİA ANKARA M MİGROS",
    "town": "Etimesgut",
    "city": "Ankara",
    "address": "Fatih Sultan Mehmet Mah. Üniversite Cad. No: 44/14",
    "lat": 39.88375,
    "lon": 32.655819
  },
  {
    "pickPointId": 4379,
    "storeId": 20000000005181,
    "name": "BAĞLICA BULVARI ANKARA MM",
    "town": "Etimesgut",
    "city": "Ankara",
    "address": "Bağlıca Mah. Bağlıca Bulvarı No:107/A -6-7-8-9-10",
    "lat": 39.896353,
    "lon": 32.659242
  },
  {
    "pickPointId": 2671,
    "storeId": 20000000008883,
    "name": "BAĞLICA GÜZELKÖY ANKARA M",
    "town": "Etimesgut",
    "city": "Ankara",
    "address": "Bağlıca Mah. Güzelköy Cad. No:19/C-CA",
    "lat": 39.886838,
    "lon": 32.626647
  },
  {
    "pickPointId": 1777,
    "storeId": 20000000006955,
    "name": "ERYAMAN EVLERİ ANKARA MM",
    "town": "Etimesgut",
    "city": "Ankara",
    "address": "Eryaman Mah 285. Sokak No:5/1,2,3",
    "lat": 39.974494,
    "lon": 32.623116
  },
  {
    "pickPointId": 2895,
    "storeId": 20000000004953,
    "name": "ETAP ERYAMAN M MİGROS",
    "town": "Etimesgut",
    "city": "Ankara",
    "address": "Şehit Osman Avcı Mh.Şehit Mehmet Çavuş Cd.No:13/1",
    "lat": 39.971482,
    "lon": 32.653496
  },
  {
    "pickPointId": 2346,
    "storeId": 20000000008372,
    "name": "GÖKSU MH. ERYAMAN ANKARA",
    "town": "Etimesgut",
    "city": "Ankara",
    "address": "Göksu Mah. 2. İnönü Cad. No:20.A.20.B.20.C",
    "lat": 40.003185,
    "lon": 32.640335
  },
  {
    "pickPointId": 568,
    "storeId": 20000000001761,
    "name": "GÖKSUPARK MMM MİGROS",
    "town": "Etimesgut",
    "city": "Ankara",
    "address": "Kontaş Canberk Şant. Göksu Park Karşısı Eryaman",
    "lat": 39.98634,
    "lon": 32.64609
  },
  {
    "pickPointId": 4378,
    "storeId": 20000000006194,
    "name": "KAŞMİR CENTER ANKARA MM MİGROS",
    "town": "Etimesgut",
    "city": "Ankara",
    "address": "Göksu Mah. 5352. Cadde F Apt. No:1 F/10",
    "lat": 39.9895,
    "lon": 32.643846
  },
  {
    "pickPointId": 4216,
    "storeId": 20000000009053,
    "name": "METROKENT ANKARA M MİGROS",
    "town": "Etimesgut",
    "city": "Ankara",
    "address": "Erzurum Kongre Cad Şehit Osman Avcı No:9/21",
    "lat": 39.981473,
    "lon": 32.647671
  },
  {
    "pickPointId": 2396,
    "storeId": 20000000005702,
    "name": "METROMALL AVM ANKARA MMM",
    "town": "Etimesgut",
    "city": "Ankara",
    "address": "Tunahan Mah Dumlupınar 30 Ağustos Cad No:2A",
    "lat": 39.983318,
    "lon": 32.610189
  },
  {
    "pickPointId": 2894,
    "storeId": 20000000008701,
    "name": "MEYDAN ERYAMAN ANKARA M MİGROS",
    "town": "Etimesgut",
    "city": "Ankara",
    "address": "Göksu Mah. Ertuğrul Bey Cad. No:2/10",
    "lat": 39.9779864,
    "lon": 32.6388041
  },
  {
    "pickPointId": 3710,
    "storeId": 20000000008743,
    "name": "MJET TOKİ TURKUAZ ANKARA",
    "town": "Etimesgut",
    "city": "Ankara",
    "address": "Turkuaz Mah. 4321. Sok. No:1 İç Kapı No: 10",
    "lat": 39.813436,
    "lon": 32.575137
  },
  {
    "pickPointId": 3102,
    "storeId": 20000000008742,
    "name": "MJET ŞEHİT H. ÖZER CD ANKARA",
    "town": "Etimesgut",
    "city": "Ankara",
    "address": "Alsancak Mah. Şehit Hikmet Özer Cad. No:132A",
    "lat": 39.9332,
    "lon": 32.655321
  },
  {
    "pickPointId": 30,
    "storeId": 20000000006455,
    "name": "SÖĞÜT CADDESİ ANKARA MM MİGROS",
    "town": "Etimesgut",
    "city": "Ankara",
    "address": "Altay Mah. Söğüt Cad. No:8 DA/G-H-I-J-K",
    "lat": 39.968183,
    "lon": 32.639611
  },
  {
    "pickPointId": 4405,
    "storeId": 20000000009802,
    "name": "TOPÇU MH ETİMESGUT ANKARA M",
    "town": "Etimesgut",
    "city": "Ankara",
    "address": "Topçu Mahallesi 1543. Cadde No: 1A",
    "lat": 39.94767,
    "lon": 32.619007
  },
  {
    "pickPointId": 2295,
    "storeId": 20000000007441,
    "name": "U.HASAN CD ETİMESGUT ANKARA M",
    "town": "Etimesgut",
    "city": "Ankara",
    "address": "İSTASYON MAHALLESİ ULUBATLI HASAN CADDESİ NO: 45A,",
    "lat": 39.943823,
    "lon": 32.662716
  },
  {
    "pickPointId": 461,
    "storeId": 20000000005682,
    "name": "YAPRACIK ANKARA MM MİGROS",
    "town": "Etimesgut",
    "city": "Ankara",
    "address": "Yukarı Yurtçu Mah.Evliya Çelebi Cad.No:20",
    "lat": 39.8413,
    "lon": 32.54
  },
  {
    "pickPointId": 1982,
    "storeId": 20000000006518,
    "name": "ZİRVE CADDESİ ANKARA",
    "town": "Etimesgut",
    "city": "Ankara",
    "address": "Bağlıca Mahallesi Zirve Caddesi No:93 B/1-2-3-4",
    "lat": 39.913011,
    "lon": 32.645766
  },
  {
    "pickPointId": 1794,
    "storeId": 20000000006523,
    "name": "ŞEHİT OSMAN AVCI MAH ANKARA MM",
    "town": "Etimesgut",
    "city": "Ankara",
    "address": "Şehit Osman Avcı Mah Melekli Caddesi No: 7A Merkez",
    "lat": 39.968906,
    "lon": 32.658727
  },
  {
    "pickPointId": 428,
    "storeId": 20000000004937,
    "name": "GÖLBAŞI ANKARA MMM MİGROS",
    "town": "Gölbaşı",
    "city": "Ankara",
    "address": "Karşıyaka Mah.Haymana Yolu Bulvarı No:4/A",
    "lat": 39.805746,
    "lon": 32.80296
  },
  {
    "pickPointId": 2452,
    "storeId": 20000000009860,
    "name": "HASTANE GÖLBAŞI ANKARA M",
    "town": "Gölbaşı",
    "city": "Ankara",
    "address": "SEĞMENLER MAH. CUMHURİYET CAD.NO:144AA",
    "lat": 39.789775,
    "lon": 32.82986
  },
  {
    "pickPointId": 2451,
    "storeId": 20000000007939,
    "name": "PARK MOGAN GÖLBAŞI ANKARA M",
    "town": "Gölbaşı",
    "city": "Ankara",
    "address": "Karşıyaka Mah. Haymana Bulvarı No:152A",
    "lat": 39.794144,
    "lon": 32.794778
  },
  {
    "pickPointId": 2849,
    "storeId": 20000000009013,
    "name": "SELİM KİRAZ CD İNCEK ANKARA M",
    "town": "Gölbaşı",
    "city": "Ankara",
    "address": "KIZILCAŞAR MAH. İNCEK ŞEHİT SELİM KİRAZ CAD.",
    "lat": 39.814597,
    "lon": 32.715611
  },
  {
    "pickPointId": 2659,
    "storeId": 20000000007500,
    "name": "TAŞPINAR MAH. İNCEK ANKARA M",
    "town": "Gölbaşı",
    "city": "Ankara",
    "address": "Taşpınar Mah. Taşpınar Küme Evleri",
    "lat": 39.818305,
    "lon": 32.769272
  },
  {
    "pickPointId": 2769,
    "storeId": 20000000008016,
    "name": "İNCEK ATABİLGE ANKARA MM",
    "town": "Gölbaşı",
    "city": "Ankara",
    "address": "Kızılcaşar Mah. 4200. Cad. 39FG",
    "lat": 39.802011,
    "lon": 32.711786
  },
  {
    "pickPointId": 87,
    "storeId": 20000000004386,
    "name": "İNCEK BULVAR MM MİGROS",
    "town": "Gölbaşı",
    "city": "Ankara",
    "address": "İncek Mah.Turgut Özal Bulvarı NO:33",
    "lat": 39.80589,
    "lon": 32.700161
  },
  {
    "pickPointId": 2660,
    "storeId": 20000000005679,
    "name": "İNCEK LOFT ANKARA M MİGROS",
    "town": "Gölbaşı",
    "city": "Ankara",
    "address": "Hacılar Mah. 986/1 Sokak R2 Apt. No:1/26/10",
    "lat": 39.794078,
    "lon": 32.711566
  },
  {
    "pickPointId": 2041,
    "storeId": 20000000001165,
    "name": "İNCEK MMM MİGROS",
    "town": "Gölbaşı",
    "city": "Ankara",
    "address": "Seki Alışveriş Mrk Kızılcaşar Mah. No:51",
    "lat": 39.829026,
    "lon": 32.731286
  },
  {
    "pickPointId": 3137,
    "storeId": 20000000007938,
    "name": "HAYMANA ANKARA M MİGROS",
    "town": "Haymana",
    "city": "Ankara",
    "address": "Yeni Mah. Ankara Cad. No: 49A",
    "lat": 39.439464,
    "lon": 32.503912
  },
  {
    "pickPointId": 2572,
    "storeId": 20000000008507,
    "name": "BELEDİYE KAHRAMANKAZAN ANK MM",
    "town": "Kahramankazan",
    "city": "Ankara",
    "address": "Atatürk Mah. Ankara Bulvarı No:105/39",
    "lat": 40.20559,
    "lon": 32.680335
  },
  {
    "pickPointId": 2896,
    "storeId": 20000000007847,
    "name": "KAHRAMANKAZAN ANKARA M",
    "town": "Kahramankazan",
    "city": "Ankara",
    "address": "Atatürk Mah. Toros Sok. No: 1L-M-N",
    "lat": 40.204755,
    "lon": 32.673247
  },
  {
    "pickPointId": 395,
    "storeId": 20000000005256,
    "name": "5M ANTARES AVM ANKARA",
    "town": "Keçiören",
    "city": "Ankara",
    "address": "Ayvalı Mah. Afra Cad. No:1/34",
    "lat": 39.970213,
    "lon": 32.821483
  },
  {
    "pickPointId": 470,
    "storeId": 20000000005537,
    "name": "5M FORUM AVM ANKARA",
    "town": "Keçiören",
    "city": "Ankara",
    "address": "Ovacık Mah. Yozgat Bulvarı No: 97/Z23",
    "lat": 40.017,
    "lon": 32.8236
  },
  {
    "pickPointId": 63,
    "storeId": 20000000005281,
    "name": "AKSARAY CAD KEÇİÖREN ANKARA M",
    "town": "Keçiören",
    "city": "Ankara",
    "address": "Pınarbaşı Mah. Aksaray Cad. No:2 A-B",
    "lat": 39.997337,
    "lon": 32.862092
  },
  {
    "pickPointId": 2010,
    "storeId": 20000000009485,
    "name": "ETLİK SANCAK ANKARA M MİGROS",
    "town": "Keçiören",
    "city": "Ankara",
    "address": "ETLİK MAH. AYVALI CAD.",
    "lat": 39.981001,
    "lon": 32.822304
  },
  {
    "pickPointId": 2993,
    "storeId": 20000000009060,
    "name": "GAMADOR KEÇİÖREN ANKARA MM",
    "town": "Keçiören",
    "city": "Ankara",
    "address": "Yayla Mahallesi Yozgat Bulvarı No: 20",
    "lat": 40.002686,
    "lon": 32.823689
  },
  {
    "pickPointId": 1948,
    "storeId": 20000000007019,
    "name": "KAVACIK KEÇİÖREN MM MİGROS",
    "town": "Keçiören",
    "city": "Ankara",
    "address": "Kalaba Mah. Fatih Cad. No: 20/B-C-D",
    "lat": 39.969561,
    "lon": 32.864852
  },
  {
    "pickPointId": 20,
    "storeId": 20000000001002,
    "name": "KEÇİÖREN MM MİGROS",
    "town": "Keçiören",
    "city": "Ankara",
    "address": "Fatih Cad. Kalaba Mah. NO: 30",
    "lat": 39.976573,
    "lon": 32.867323
  },
  {
    "pickPointId": 4571,
    "storeId": 20000000008998,
    "name": "MJET NURİ PAMİR CD ANKARA",
    "town": "Keçiören",
    "city": "Ankara",
    "address": "Şenlik Mahallesi Nuri Pamir Caddesi No: 28D",
    "lat": 39.999676,
    "lon": 32.870858
  },
  {
    "pickPointId": 2288,
    "storeId": 20000000008154,
    "name": "OVACIK KEÇİÖREN ANKARA M",
    "town": "Keçiören",
    "city": "Ankara",
    "address": "Sancaktepe Mah. 1572. Cad. No:13G",
    "lat": 39.997834,
    "lon": 32.817435
  },
  {
    "pickPointId": 4231,
    "storeId": 20000000003236,
    "name": "SUBAYEVLERİ ANKARA M MİGROS",
    "town": "Keçiören",
    "city": "Ankara",
    "address": "Ayışan Sok. NO:39/A Kavacık Subayevleri Mah",
    "lat": 39.969496,
    "lon": 32.871491
  },
  {
    "pickPointId": 2646,
    "storeId": 20000000006471,
    "name": "VEGA AVM ANKARA MM MİGROS",
    "town": "Keçiören",
    "city": "Ankara",
    "address": "Hasköy Mah. Şehit Ömer Halisdemir Bulvarı No:165",
    "lat": 39.975289,
    "lon": 32.884361
  },
  {
    "pickPointId": 2693,
    "storeId": 20000000007562,
    "name": "KIZILCAHAMAM ANKARA M MİGROS",
    "town": "Kızılcahamam",
    "city": "Ankara",
    "address": "Akçay Mah. Kırım Cd. No:11/A-B-C-D",
    "lat": 40.471464,
    "lon": 32.65467
  },
  {
    "pickPointId": 3013,
    "storeId": 20000000008020,
    "name": "MJET AKÇAY KIZILCAHAM ANK",
    "town": "Kızılcahamam",
    "city": "Ankara",
    "address": "Akçay Mah. Ankara Cad. No: 25B",
    "lat": 40.470278,
    "lon": 32.649704
  },
  {
    "pickPointId": 2298,
    "storeId": 20000000007832,
    "name": "ALTIAĞAÇ TOKİ MAMAK ANKARA M",
    "town": "Mamak",
    "city": "Ankara",
    "address": "Altıağaç Mah. 206. Cad. (Eski 2. Cadde) No:40F",
    "lat": 39.937498,
    "lon": 32.919007
  },
  {
    "pickPointId": 83,
    "storeId": 20000000003327,
    "name": "CEBECİ ANKARA M MİGROS",
    "town": "Mamak",
    "city": "Ankara",
    "address": "Demirlibahçe Mah. Uzgörenler Sok No:4A",
    "lat": 39.93408,
    "lon": 32.8799
  },
  {
    "pickPointId": 1992,
    "storeId": 20000000006609,
    "name": "MAMAK ANKARA MMM",
    "town": "Mamak",
    "city": "Ankara",
    "address": "Cengizhan Mah. Sultan Fatih Cad. 22/A",
    "lat": 39.894785,
    "lon": 32.930456
  },
  {
    "pickPointId": 668,
    "storeId": 20000000006197,
    "name": "NATA VEGA AVM ANKARA MM",
    "town": "Mamak",
    "city": "Ankara",
    "address": "Akşemsettin Mah. 2308. sokak  No:1/A 18",
    "lat": 39.887084,
    "lon": 32.933707
  },
  {
    "pickPointId": 3426,
    "storeId": 20000000006697,
    "name": "NATOYOLU ANKARA MM MİGROS",
    "town": "Mamak",
    "city": "Ankara",
    "address": "Ege Mah. Natayolu Cad. No:158/A",
    "lat": 39.899136,
    "lon": 32.919567
  },
  {
    "pickPointId": 4226,
    "storeId": 20000000007749,
    "name": "PLEVNE MAMAK ANKARA M MİGROS",
    "town": "Mamak",
    "city": "Ankara",
    "address": "Altınevler Mah. Yatıkmusluk Cad. No:19A",
    "lat": 39.95134,
    "lon": 32.897256
  },
  {
    "pickPointId": 2694,
    "storeId": 20000000007896,
    "name": "NALLIHAN ANKARA M MİGROS",
    "town": "Nallıhan",
    "city": "Ankara",
    "address": "Hacıbey Mah.Ankara İstanbul Yolu Cad No:141/2",
    "lat": 40.193562,
    "lon": 31.348566
  },
  {
    "pickPointId": 3050,
    "storeId": 20000000008506,
    "name": "ÇAYIRHAN MH NALLIHAN ANKARA M",
    "town": "Nallıhan",
    "city": "Ankara",
    "address": "Çayırhan Mah. Atatürk Bulvarı No: 30A",
    "lat": 40.094391,
    "lon": 31.671833
  },
  {
    "pickPointId": 3708,
    "storeId": 20000000008401,
    "name": "MJET ŞEHİTLİK MH POLATLI ANK",
    "town": "Polatlı",
    "city": "Ankara",
    "address": "Şehitlik Mah. Emine Işınsu Cad. No: 11A",
    "lat": 39.59074,
    "lon": 32.129448
  },
  {
    "pickPointId": 3709,
    "storeId": 20000000008038,
    "name": "MJET ŞENTEPE POLATLI ANKARA",
    "town": "Polatlı",
    "city": "Ankara",
    "address": "Şentepe Mahallesi Belde Caddesi No:10BA",
    "lat": 39.561754,
    "lon": 32.145722
  },
  {
    "pickPointId": 1797,
    "storeId": 20000000003237,
    "name": "POLATLI ANKARA M MİGROS",
    "town": "Polatlı",
    "city": "Ankara",
    "address": "Şehitlik Mah Ziyakökalp Cad NO 18",
    "lat": 39.580522,
    "lon": 32.1225
  },
  {
    "pickPointId": 2286,
    "storeId": 20000000007898,
    "name": "M.SİNAN MH PURSAKLAR ANKARA MM",
    "town": "Pursaklar",
    "city": "Ankara",
    "address": "Mimar Sinan Mah. Özler Sok. No: 1B-AD",
    "lat": 40.044013,
    "lon": 32.888294
  },
  {
    "pickPointId": 2651,
    "storeId": 20000000008411,
    "name": "PURSAKLAR ANKARA M MİGROS",
    "town": "Pursaklar",
    "city": "Ankara",
    "address": "Saray Cumhuriyet Mah. Şehit Ahmet Edem Cad. No:6/D",
    "lat": 40.069291,
    "lon": 32.926085
  },
  {
    "pickPointId": 2899,
    "storeId": 20000000008542,
    "name": "29 EKİM YENİKENT ANK M MİGROS",
    "town": "Sincan",
    "city": "Ankara",
    "address": "29 Ekim Mah. Melih Gökçek Bulvarı No: 5AA",
    "lat": 40.017021,
    "lon": 32.534879
  },
  {
    "pickPointId": 2691,
    "storeId": 20000000008131,
    "name": "BOSNA SİNCAN ANKARA MM",
    "town": "Sincan",
    "city": "Ankara",
    "address": "Akşemsettin Mah. Bosna Cad. No:37A",
    "lat": 39.9653,
    "lon": 32.586369
  },
  {
    "pickPointId": 2204,
    "storeId": 20000000007440,
    "name": "FATİH SİNCAN ANKARA M MİGROS",
    "town": "Sincan",
    "city": "Ankara",
    "address": "Gazi Osmanpaşa Mah. Gamzeli Cd. No:73A",
    "lat": 39.994795,
    "lon": 32.583953
  },
  {
    "pickPointId": 2898,
    "storeId": 20000000008837,
    "name": "METRO SİNCAN ANKARA M MİGROS",
    "town": "Sincan",
    "city": "Ankara",
    "address": "Fatih Mahallesi Kültür Caddesi No:10-O",
    "lat": 39.984147,
    "lon": 32.586426
  },
  {
    "pickPointId": 3705,
    "storeId": 20000000008523,
    "name": "MJET HÜRRİYET CD TEMELLİ ANK",
    "town": "Sincan",
    "city": "Ankara",
    "address": "Cumhuriyet Mah. Hürriyet Cad. No:13A",
    "lat": 39.725646,
    "lon": 32.353382
  },
  {
    "pickPointId": 2227,
    "storeId": 20000000007845,
    "name": "SELİN SK. SİNCAN ANKARA MM",
    "town": "Sincan",
    "city": "Ankara",
    "address": "Osmanlı Mah. Muammer Aksoy Cad. No: 50,50A,50C",
    "lat": 39.947999,
    "lon": 32.582236
  },
  {
    "pickPointId": 2868,
    "storeId": 20000000009011,
    "name": "YENİKENT ANKARA M MİGROS",
    "town": "Sincan",
    "city": "Ankara",
    "address": "MUSTAFA KEMAL MAH.FATİH CAD.NO:19/E-F",
    "lat": 40.003859,
    "lon": 32.519074
  },
  {
    "pickPointId": 473,
    "storeId": 20000000000710,
    "name": "5M ANKARA",
    "town": "Yenimahalle",
    "city": "Ankara",
    "address": "Gazi Mah. Konya Devlet Yolu Akköprü mevkii",
    "lat": 39.950288,
    "lon": 32.831118
  },
  {
    "pickPointId": 2404,
    "storeId": 20000000008168,
    "name": "5M VELUX AVM ANKARA",
    "town": "Yenimahalle",
    "city": "Ankara",
    "address": "İnönü Mah. Fatih Sultan Mehmet Bulvarı No:4",
    "lat": 39.945847,
    "lon": 32.737819
  },
  {
    "pickPointId": 3975,
    "storeId": 20000000009764,
    "name": "ADRES ETLİK ANKARA M MİGROS",
    "town": "Yenimahalle",
    "city": "Ankara",
    "address": "Işınlar Mahallesi Akşemsettin Caddesi No: 21K",
    "lat": 39.965365,
    "lon": 32.820059
  },
  {
    "pickPointId": 5,
    "storeId": 20000000005550,
    "name": "ARMADA AVM ANKARA MM",
    "town": "Yenimahalle",
    "city": "Ankara",
    "address": "Eskişehir Yolu Armada AVM No: 6/B4 Söğütözü",
    "lat": 39.9131,
    "lon": 32.8092
  },
  {
    "pickPointId": 468,
    "storeId": 20000000005542,
    "name": "ATLANTİS AVM ANKARA MMM MİGROS",
    "town": "Yenimahalle",
    "city": "Ankara",
    "address": "Başkent Bulv.No:224 /H-01 Batıkent Altantis AVM",
    "lat": 39.9702,
    "lon": 32.7154
  },
  {
    "pickPointId": 1804,
    "storeId": 20000000006703,
    "name": "GALA SOKAĞI ANKARA MM",
    "town": "Yenimahalle",
    "city": "Ankara",
    "address": "Ergazi Mah. Cengiz Aytmatov Cad. No:19-A",
    "lat": 39.959877,
    "lon": 32.713422
  },
  {
    "pickPointId": 2260,
    "storeId": 20000000008532,
    "name": "ORMAN GM ANKARA M MİGROS",
    "town": "Yenimahalle",
    "city": "Ankara",
    "address": "Beştepe Mah 9 Cadde No:2/2",
    "lat": 39.921277,
    "lon": 32.801574
  },
  {
    "pickPointId": 3427,
    "storeId": 20000000009215,
    "name": "OSTİM YENİMAHALLE ANKARA MM",
    "town": "Yenimahalle",
    "city": "Ankara",
    "address": "SERHAT MAH. MEHMET AKİF ERSOY CAD.",
    "lat": 39.975964,
    "lon": 32.760065
  },
  {
    "pickPointId": 386,
    "storeId": 20000000004817,
    "name": "PODİUM AVM ANKARA MMM MİGROS",
    "town": "Yenimahalle",
    "city": "Ankara",
    "address": "Mehmetakif Ersoy Mah. Bağdat Cad NO:60/B-008",
    "lat": 39.962155,
    "lon": 32.770543
  },
  {
    "pickPointId": 2897,
    "storeId": 20000000008977,
    "name": "SEVAL CD ANKARA M MİGROS",
    "town": "Yenimahalle",
    "city": "Ankara",
    "address": "Burç Mah.Seval Cd. No:90-C-D",
    "lat": 39.98897,
    "lon": 32.800819
  },
  {
    "pickPointId": 67,
    "storeId": 20000000006392,
    "name": "YENİ BATI ANKARA MM MİGROS",
    "town": "Yenimahalle",
    "city": "Ankara",
    "address": "Yeni Batı Mah. Necip Fazıl Cad. No:13F/F-G-H",
    "lat": 39.980933,
    "lon": 32.663514
  },
  {
    "pickPointId": 22,
    "storeId": 20000000005862,
    "name": "YENİ MAHALLE ASIM BEY CAD M",
    "town": "Yenimahalle",
    "city": "Ankara",
    "address": "Gayret Mah. İvedik Cad. A Blok Apt.No:27 AC",
    "lat": 39.963207,
    "lon": 32.806227
  },
  {
    "pickPointId": 59,
    "storeId": 20000000001069,
    "name": "YENİMAHALLE ANKARA MM MİGROS",
    "town": "Yenimahalle",
    "city": "Ankara",
    "address": "Yeniçağ Mah. Ragıp Tüzün Cad.5.Durak No:134",
    "lat": 39.96587,
    "lon": 32.81273
  },
  {
    "pickPointId": 90,
    "storeId": 20000000008979,
    "name": "ÇAKIRLAR ANKARA M MİGROS",
    "town": "Yenimahalle",
    "city": "Ankara",
    "address": "Kardelen Mah.2075 Sokak A Blok No:30-A",
    "lat": 39.984667,
    "lon": 32.693681
  },
  {
    "pickPointId": 2893,
    "storeId": 20000000008632,
    "name": "ŞEHİT M. SAFİTÜRK ANK M MİGROS",
    "town": "Yenimahalle",
    "city": "Ankara",
    "address": "Yeni Batı Mah.",
    "lat": 39.980271,
    "lon": 32.686763
  },
  {
    "pickPointId": 3451,
    "storeId": 20000000008470,
    "name": "1923 BEYTEPE ANKARA M MİGROS",
    "town": "Çankaya",
    "city": "Ankara",
    "address": "Beytepe Mah. 5388. Sokak No: 1C-1",
    "lat": 39.860973,
    "lon": 32.712159
  },
  {
    "pickPointId": 396,
    "storeId": 20000000005869,
    "name": "5M BİLKENT CENTER ANKARA",
    "town": "Çankaya",
    "city": "Ankara",
    "address": "Üniversiteler Mah. 1597. Cadde No:3/1",
    "lat": 39.883857,
    "lon": 32.758194
  },
  {
    "pickPointId": 432,
    "storeId": 20000000006086,
    "name": "5M TAURUS AVM ANKARA",
    "town": "Çankaya",
    "city": "Ankara",
    "address": "İşçi Blokları Mah. Mevlana Bulvarı No: 190 B-1",
    "lat": 39.887878,
    "lon": 32.811892
  },
  {
    "pickPointId": 1,
    "storeId": 20000000006334,
    "name": "ALACAATLI ANKARA MMM MİGROS",
    "town": "Çankaya",
    "city": "Ankara",
    "address": "Prof.Dr.Ahmet Taner Kışlalı Mah.No:36/B-C-D-E-F-G",
    "lat": 39.863993,
    "lon": 32.682405
  },
  {
    "pickPointId": 23,
    "storeId": 20000000004961,
    "name": "ALTIN ORAN ANKARA MM MİGROS",
    "town": "Çankaya",
    "city": "Ankara",
    "address": "İlkbahar Mah Güneypark Kümeevleri NO:19B-52",
    "lat": 39.848134,
    "lon": 32.85573
  },
  {
    "pickPointId": 61,
    "storeId": 20000000003235,
    "name": "ANITTEPE GMK M MİGROS",
    "town": "Çankaya",
    "city": "Ankara",
    "address": "Anıttepe Mah. GMK Bulvarı NO: 99/ A-B",
    "lat": 39.931416,
    "lon": 32.843724
  },
  {
    "pickPointId": 82,
    "storeId": 20000000003076,
    "name": "ANKARA 100.YIL MM MIGROS",
    "town": "Çankaya",
    "city": "Ankara",
    "address": "İşçi Bloklar Mah.37.Cad.No:58/4",
    "lat": 39.893131,
    "lon": 32.797617
  },
  {
    "pickPointId": 89,
    "storeId": 20000000003079,
    "name": "ANKARA KOLEJ M MIGROS",
    "town": "Çankaya",
    "city": "Ankara",
    "address": "Kültür Mah. Libadiye Cad No:11/B Kolej",
    "lat": 39.92027,
    "lon": 32.86263
  },
  {
    "pickPointId": 2772,
    "storeId": 20000000003078,
    "name": "ANKARA ORAN M MIGROS",
    "town": "Çankaya",
    "city": "Ankara",
    "address": "Oran Mah.Zühtü Tigrel cad.No:7",
    "lat": 39.847196,
    "lon": 32.826794
  },
  {
    "pickPointId": 623,
    "storeId": 20000000001025,
    "name": "ANSERA MM MİGROS",
    "town": "Çankaya",
    "city": "Ankara",
    "address": "Ansera İş Merkezi Hoşdere Cad. Portakal Çiçeği Sok",
    "lat": 39.88916,
    "lon": 32.84998
  },
  {
    "pickPointId": 73,
    "storeId": 20000000004972,
    "name": "AŞAĞI AYRANCI ANKARA MM MİGROS",
    "town": "Çankaya",
    "city": "Ankara",
    "address": "Remzi Oğuz Arık Mah. Şimşek Sok. NO:2/B",
    "lat": 39.907061,
    "lon": 32.853632
  },
  {
    "pickPointId": 60,
    "storeId": 20000000002637,
    "name": "BAHÇELİEVLER 7. CADDE ANKARA M",
    "town": "Çankaya",
    "city": "Ankara",
    "address": "Yukarı Bahçelievler Mah.Aşkabat(7.) Cad.No:25",
    "lat": 39.922008,
    "lon": 32.826518
  },
  {
    "pickPointId": 21,
    "storeId": 20000000000386,
    "name": "BAHÇELİEVLER ANKARA MM MİGROS",
    "town": "Çankaya",
    "city": "Ankara",
    "address": "BAHÇELİEVLER MAHALLESİ AZERBAYCAN CADDESİ NO:35A",
    "lat": 39.928448,
    "lon": 32.826687
  },
  {
    "pickPointId": 2699,
    "storeId": 20000000000394,
    "name": "BALGAT ANKARA MM MİGROS",
    "town": "Çankaya",
    "city": "Ankara",
    "address": "Çetin Emeç Bulv. Ehlibeyt Mah. No:117",
    "lat": 39.89649,
    "lon": 32.81657
  },
  {
    "pickPointId": 4381,
    "storeId": 20000000003004,
    "name": "BESA KARİNA MM MİGROS",
    "town": "Çankaya",
    "city": "Ankara",
    "address": "Yaşamkent Mah. 3222. Cad. No:29A",
    "lat": 39.857277,
    "lon": 32.645617
  },
  {
    "pickPointId": 2697,
    "storeId": 20000000007142,
    "name": "BESTEKAR SOKAK ANKARA M MİGROS",
    "town": "Çankaya",
    "city": "Ankara",
    "address": "R.Oğuz Arık Mah.Bestekar Cad.No:63",
    "lat": 39.906055,
    "lon": 32.860335
  },
  {
    "pickPointId": 566,
    "storeId": 20000000001807,
    "name": "BEYSUPARK MMM MİGROS",
    "town": "Çankaya",
    "city": "Ankara",
    "address": "Angora Cad. BEYSUPARK AVM Beysukent",
    "lat": 39.87684,
    "lon": 32.70529
  },
  {
    "pickPointId": 1916,
    "storeId": 20000000007164,
    "name": "BEYTEPE MAH ÇANKAYA ANKARA M",
    "town": "Çankaya",
    "city": "Ankara",
    "address": "Beytepe Mah.5387.Cad.No:27/C2-3-4-5",
    "lat": 39.862506,
    "lon": 32.711448
  },
  {
    "pickPointId": 2460,
    "storeId": 20000000007954,
    "name": "BULVAR ANGORA ANKARA MM",
    "town": "Çankaya",
    "city": "Ankara",
    "address": "Mutlukent Mah Angora Bulvarı No: 118-120",
    "lat": 39.887321,
    "lon": 32.7180553
  },
  {
    "pickPointId": 4229,
    "storeId": 20000000005861,
    "name": "BİRLİK MAH. ANKARA M MİGROS",
    "town": "Çankaya",
    "city": "Ankara",
    "address": "Birlik Mah.Şehit Sadık Erişen Sok No:54/A",
    "lat": 39.879666,
    "lon": 32.88069
  },
  {
    "pickPointId": 2338,
    "storeId": 20000000008023,
    "name": "CADDE 448 BİRLİK MH ANKARA M",
    "town": "Çankaya",
    "city": "Ankara",
    "address": "Birlik Mah. 448. Cadde No: 48A",
    "lat": 39.877464,
    "lon": 32.878608
  },
  {
    "pickPointId": 1774,
    "storeId": 20000000006981,
    "name": "CEPA AVM ANKARA MMM MİGROS",
    "town": "Çankaya",
    "city": "Ankara",
    "address": "Mustafa Kemal Mah. 2123 Cad. No:2C",
    "lat": 39.909583,
    "lon": 32.778393
  },
  {
    "pickPointId": 3513,
    "storeId": 20000000009238,
    "name": "CUBES ANKARA MM MİGROS",
    "town": "Çankaya",
    "city": "Ankara",
    "address": "Çukurambar Mahallesi 1424. Cadde No: 6/2-18",
    "lat": 39.905676,
    "lon": 32.803651
  },
  {
    "pickPointId": 2677,
    "storeId": 20000000007735,
    "name": "DODURGA MAH. ANKARA M",
    "town": "Çankaya",
    "city": "Ankara",
    "address": "Alacaatlı Mah. 3407 Cadde No:6/C-D-E",
    "lat": 39.848847,
    "lon": 32.637398
  },
  {
    "pickPointId": 2874,
    "storeId": 20000000009034,
    "name": "DOĞUKENT ANKARA M MİGROS",
    "town": "Çankaya",
    "city": "Ankara",
    "address": "İlkbahar Mah. Doğukent Cad. No:739A, 739B, 739C",
    "lat": 39.859385,
    "lon": 32.854785
  },
  {
    "pickPointId": 644,
    "storeId": 20000000003588,
    "name": "DİKMEN CADDE MM MİGROS",
    "town": "Çankaya",
    "city": "Ankara",
    "address": "Osman Temiz Mahallesi Dikmen Caddesi No: 313/A",
    "lat": 39.874385,
    "lon": 32.834702
  },
  {
    "pickPointId": 62,
    "storeId": 20000000003320,
    "name": "EMEK ANKARA M MİGROS",
    "town": "Çankaya",
    "city": "Ankara",
    "address": "Bişkek Cad.No:137 Emek Mah",
    "lat": 39.921796,
    "lon": 32.81764
  },
  {
    "pickPointId": 649,
    "storeId": 20000000000383,
    "name": "G.O.PAŞA ANKARA MM MİGROS",
    "town": "Çankaya",
    "city": "Ankara",
    "address": "Uğur Mumcu Cad. Büyükesat Mah No:66 G.O.P:",
    "lat": 39.893888,
    "lon": 32.877499
  },
  {
    "pickPointId": 28,
    "storeId": 20000000008997,
    "name": "GALLERİA AVM ANKARA M MİGROS",
    "town": "Çankaya",
    "city": "Ankara",
    "address": "Mutlukent Mh. Doğan Taşdelen Blv. No:97/17",
    "lat": 39.895192,
    "lon": 32.703992
  },
  {
    "pickPointId": 4214,
    "storeId": 20000000009293,
    "name": "KARANFİL SK KIZILAY ANKARA M",
    "town": "Çankaya",
    "city": "Ankara",
    "address": "Meşrutiyet Mahallesi Karanfil Sokak No: 2E-1",
    "lat": 39.92047,
    "lon": 32.85505
  },
  {
    "pickPointId": 2043,
    "storeId": 20000000008996,
    "name": "KONUTKENT ANKARA M MİGROS",
    "town": "Çankaya",
    "city": "Ankara",
    "address": "Konutkent Mah. 2965. cad. No:34/1",
    "lat": 39.8769222,
    "lon": 32.6699274
  },
  {
    "pickPointId": 3703,
    "storeId": 20000000009059,
    "name": "KOORDİNAT ÇAYYOLU ANKARA M",
    "town": "Çankaya",
    "city": "Ankara",
    "address": "Mutlukent Mahallesi 3450. Sokak No: 1DA",
    "lat": 39.8918911,
    "lon": 32.7090438
  },
  {
    "pickPointId": 471,
    "storeId": 20000000000465,
    "name": "KORU SİTESİ ANKARA MMM MİGROS",
    "town": "Çankaya",
    "city": "Ankara",
    "address": "Koru Mah. Dumlupınar Bulvarı No: 355/C",
    "lat": 39.893827,
    "lon": 32.679123
  },
  {
    "pickPointId": 3979,
    "storeId": 20000000009275,
    "name": "KOZ ORAN ANKARA MM MİGROS",
    "town": "Çankaya",
    "city": "Ankara",
    "address": "Yukarı Dikmen Mahallesi 786. Cadde No: 145D",
    "lat": 39.85692,
    "lon": 32.841258
  },
  {
    "pickPointId": 2794,
    "storeId": 20000000005202,
    "name": "KULE EVO ANKARA MM MİGROS",
    "town": "Çankaya",
    "city": "Ankara",
    "address": "Konutkent Mah. 3028 Cadde No:16B/22-23-24-25",
    "lat": 39.874094,
    "lon": 32.649432
  },
  {
    "pickPointId": 2678,
    "storeId": 20000000003331,
    "name": "KURTULUŞ ANKARA M MİGROS",
    "town": "Çankaya",
    "city": "Ankara",
    "address": "Çamlıtepe Mah. Kıbrıs cad. No:11",
    "lat": 39.92521,
    "lon": 32.86849
  },
  {
    "pickPointId": 1956,
    "storeId": 20000000000390,
    "name": "KÜÇÜKESAT ANKARA M MİGROS",
    "town": "Çankaya",
    "city": "Ankara",
    "address": "Küçükesat Mah. Esat Cad. No:76",
    "lat": 39.908901,
    "lon": 32.863999
  },
  {
    "pickPointId": 3706,
    "storeId": 20000000007918,
    "name": "MJET MALTEPE MAH. ANKARA",
    "town": "Çankaya",
    "city": "Ankara",
    "address": "Maltepe Mah. Şehit Gönenç Cad. 5 İç Kapı No:41",
    "lat": 39.924285,
    "lon": 32.845909
  },
  {
    "pickPointId": 1770,
    "storeId": 20000000006057,
    "name": "MOZAİK ÇARŞI ANKARA MM MİGROS",
    "town": "Çankaya",
    "city": "Ankara",
    "address": "Alacaatlı Mah. 3381 Cad. No:42B/7",
    "lat": 39.853947,
    "lon": 32.656692
  },
  {
    "pickPointId": 2850,
    "storeId": 20000000009014,
    "name": "MUSTAFA KEMAL MH ANKARA M",
    "town": "Çankaya",
    "city": "Ankara",
    "address": "MUSTAFA KEMAL MAH.2127 SOK.NO:9/3-4-A-B",
    "lat": 39.911952,
    "lon": 32.767853
  },
  {
    "pickPointId": 1719,
    "storeId": 20000000008116,
    "name": "ODC CENTER ANKARA M MİGROS",
    "town": "Çankaya",
    "city": "Ankara",
    "address": "İşçi Blokları Mah. 1500 Cadde. NO:9/1",
    "lat": 39.891137,
    "lon": 32.807954
  },
  {
    "pickPointId": 429,
    "storeId": 20000000005528,
    "name": "PANORA AVM ANKARA MMM MİGROS",
    "town": "Çankaya",
    "city": "Ankara",
    "address": "Oran Mah. Kudüs Cad. Panora Avm No:3/8",
    "lat": 39.8479,
    "lon": 32.8316
  },
  {
    "pickPointId": 2988,
    "storeId": 20000000009448,
    "name": "PRESTİJ İNCEK ANKARA M",
    "town": "Çankaya",
    "city": "Ankara",
    "address": "ALACAATLI MAH. 3341 SOK.",
    "lat": 39.837772,
    "lon": 32.703942
  },
  {
    "pickPointId": 2597,
    "storeId": 20000000008586,
    "name": "S.SÜLEYMAN BLV ANK MM MİGROS",
    "town": "Çankaya",
    "city": "Ankara",
    "address": "Alacaatlı Mah.Kanuni Sultan Süleyman Bulv No:128BE",
    "lat": 39.831066,
    "lon": 32.708383
  },
  {
    "pickPointId": 3,
    "storeId": 20000000006281,
    "name": "SANTRA ANKARA MMM MİGROS",
    "town": "Çankaya",
    "city": "Ankara",
    "address": "Çayyolu Mah. 2673 Cad. No:8/A-B",
    "lat": 39.884672,
    "lon": 32.698772
  },
  {
    "pickPointId": 2054,
    "storeId": 20000000007412,
    "name": "SİNPAŞ EGE VADİSİ M MİGROS",
    "town": "Çankaya",
    "city": "Ankara",
    "address": "Yukarı Dikmen Mah. 648. Cad.",
    "lat": 39.855281,
    "lon": 32.845667
  },
  {
    "pickPointId": 3138,
    "storeId": 20000000003646,
    "name": "TEPE PRIME ANKARA M MİGROS",
    "town": "Çankaya",
    "city": "Ankara",
    "address": "Mustafa Kemal Mah.Dumlupınar Bulvarı",
    "lat": 39.909012,
    "lon": 32.755394
  },
  {
    "pickPointId": 2280,
    "storeId": 20000000007871,
    "name": "TÜRKALP ÇUKURAMBAR ANKARA MM",
    "town": "Çankaya",
    "city": "Ankara",
    "address": "Çukurambar Mah. 1425. Cadde No: 13A",
    "lat": 39.900798,
    "lon": 32.804237
  },
  {
    "pickPointId": 823,
    "storeId": 20000000004922,
    "name": "YAŞAMKENT ANKARA MM MİGROS",
    "town": "Çankaya",
    "city": "Ankara",
    "address": "Yaşamkent Mah. 3250. Cadde No:6/B-3,B-4,B-5,B-6",
    "lat": 39.860275,
    "lon": 32.636471
  },
  {
    "pickPointId": 3416,
    "storeId": 20000000009567,
    "name": "YILDIZEVLER ANKARA M MİGROS",
    "town": "Çankaya",
    "city": "Ankara",
    "address": "YILDIZEVLER MAH. KISINEV CAD.",
    "lat": 39.878055,
    "lon": 32.860833
  },
  {
    "pickPointId": 4323,
    "storeId": 20000000007956,
    "name": "YUKARI DİKMEN MAH. ANKARA MM",
    "town": "Çankaya",
    "city": "Ankara",
    "address": "Yukarı Dikmen Mah 639 Cadde No: 7A-7B-7C",
    "lat": 39.8537934,
    "lon": 32.8473066
  },
  {
    "pickPointId": 390,
    "storeId": 20000000001996,
    "name": "ZİRVEKENT MMM MİGROS",
    "town": "Çankaya",
    "city": "Ankara",
    "address": "365 AVM. Birlik Mah.428 Cadde. NO:41",
    "lat": 39.875715,
    "lon": 32.869377
  },
  {
    "pickPointId": 399,
    "storeId": 20000000003326,
    "name": "ÇAYYOLU ANKARA MMM MİGROS",
    "town": "Çankaya",
    "city": "Ankara",
    "address": "Prof.Dr Ahmet Taner Kışlalı Mh.8.Cd.no:179 Çayyolu",
    "lat": 39.882104,
    "lon": 32.686558
  },
  {
    "pickPointId": 2278,
    "storeId": 20000000007162,
    "name": "ÇAYYOLU GAZİ M MİGROS",
    "town": "Çankaya",
    "city": "Ankara",
    "address": "Yaşamkent Mah.3061 Cad.No:5/E-F",
    "lat": 39.870745,
    "lon": 32.664633
  },
  {
    "pickPointId": 3719,
    "storeId": 20000000008371,
    "name": "ÇAYYOLU MH. KÖYİÇİ ANKARA M",
    "town": "Çankaya",
    "city": "Ankara",
    "address": "Çayyolu Mah. 2661/1 Sokak No: 3E/3-3E/4",
    "lat": 39.886607,
    "lon": 32.694832
  },
  {
    "pickPointId": 1957,
    "storeId": 20000000002405,
    "name": "ÇUKURAMBAR M MİGROS",
    "town": "Çankaya",
    "city": "Ankara",
    "address": "Kızılırmak Mah.1423 Caddesi No:21",
    "lat": 39.902916,
    "lon": 32.809011
  },
  {
    "pickPointId": 4219,
    "storeId": 20000000008864,
    "name": "İZCİ SK ÇANKAYA ANKARA M",
    "town": "Çankaya",
    "city": "Ankara",
    "address": "Kazım Özalp Mahallesi İzci Sokak No: 2A",
    "lat": 39.897302,
    "lon": 32.871457
  },
  {
    "pickPointId": 4230,
    "storeId": 20000000003290,
    "name": "İÇ CEBECİ ANKARA M MİGROS",
    "town": "Çankaya",
    "city": "Ankara",
    "address": "İç Cebeci Mah. Kutlugün Sok. NO:10-4/A-B-C",
    "lat": 39.93065,
    "lon": 32.87691
  },
  {
    "pickPointId": 2647,
    "storeId": 20000000008953,
    "name": "ÇUBUK ANKARA M MİGROS",
    "town": "Çubuk",
    "city": "Ankara",
    "address": "Atatürk Mah. Leylak Sok. No:2/1E-1F-1G-1H",
    "lat": 40.236678,
    "lon": 33.026948
  },
  {
    "pickPointId": 3174,
    "storeId": 20000000007697,
    "name": "ŞEREFLİKOÇHİSAR ANKARA M",
    "town": "Şereflikoçhisar",
    "city": "Ankara",
    "address": "Sanayi Mah. Metin Şanal Bulvarı",
    "lat": 38.934762,
    "lon": 33.550331
  },
  {
    "pickPointId": 3619,
    "storeId": 20000000008881,
    "name": "AKKAVAK CD AKSU ANTALYA M",
    "town": "Aksu",
    "city": "Antalya",
    "address": "Altıntaş Mah. Akkavak Cad. No:26",
    "lat": 36.8923065,
    "lon": 30.82235607
  },
  {
    "pickPointId": 3486,
    "storeId": 20000000009687,
    "name": "ALTINTAŞ MH AKSU ANTALYA M",
    "town": "Aksu",
    "city": "Antalya",
    "address": "Altıntaş Mah Kardeş Kentler Cad No: 119A-119B",
    "lat": 36.903694,
    "lon": 30.817303
  },
  {
    "pickPointId": 3998,
    "storeId": 20000000008219,
    "name": "KEMERAĞZI KUNDU ANT M MİGROS",
    "town": "Aksu",
    "city": "Antalya",
    "address": "Kemerağzı Mah. Yaşat Sobutay Bulv.",
    "lat": 36.857407,
    "lon": 30.873484
  },
  {
    "pickPointId": 2955,
    "storeId": 20000000002407,
    "name": "KUNDU ANTALYA MMM MİGROS",
    "town": "Aksu",
    "city": "Antalya",
    "address": "Kemerağzı Mah. Tesisler Cad.  A Blok NO:325/1",
    "lat": 36.858065,
    "lon": 30.8681734
  },
  {
    "pickPointId": 3997,
    "storeId": 20000000008495,
    "name": "KUNDU HİSAR AVM ANTALYA MM",
    "town": "Aksu",
    "city": "Antalya",
    "address": "Kemerağzı Mah. Yaşar Sobutay Bulv. No:49/D",
    "lat": 36.857272,
    "lon": 30.882012
  },
  {
    "pickPointId": 3661,
    "storeId": 20000000005892,
    "name": "MJET ANTALYA AKSU",
    "town": "Aksu",
    "city": "Antalya",
    "address": "Macun Mah. İsmail Ogan Cad. No:7/4",
    "lat": 36.952269,
    "lon": 30.845642
  },
  {
    "pickPointId": 401,
    "storeId": 20000000005530,
    "name": "5M ALANYA",
    "town": "Alanya",
    "city": "Antalya",
    "address": "Saray Beleni Mah. Hacıbaba Cad.No:4",
    "lat": 36.5463,
    "lon": 32.0261
  },
  {
    "pickPointId": 2933,
    "storeId": 20000000004050,
    "name": "ALANYA AVSALLAR M MİGROS",
    "town": "Alanya",
    "city": "Antalya",
    "address": "Avşallar Mah Zafer Cad. NO:7",
    "lat": 36.623888,
    "lon": 31.7675
  },
  {
    "pickPointId": 4009,
    "storeId": 20000000006869,
    "name": "ALANYA CİKCİLLİ BULVAR M",
    "town": "Alanya",
    "city": "Antalya",
    "address": "Cikcilli Mh.Mevlüt Çavuşoğlu Bulvarı NO:10 A/A",
    "lat": 36.549962,
    "lon": 32.022649
  },
  {
    "pickPointId": 2443,
    "storeId": 20000000007186,
    "name": "ALANYA KARGICAK TERAS M MİGROS",
    "town": "Alanya",
    "city": "Antalya",
    "address": "Kargıcak Mah.Gazipaşa Cad.No:25 AA/AB/AC/AD/AE/AF",
    "lat": 36.46454,
    "lon": 32.12079
  },
  {
    "pickPointId": 2929,
    "storeId": 20000000004471,
    "name": "ALANYA KESTEL MM MİGROS",
    "town": "Alanya",
    "city": "Antalya",
    "address": "Kestel Köyü,Merkez Mahallesi,İsa Küçülmez Cad.",
    "lat": 36.513333,
    "lon": 32.068889
  },
  {
    "pickPointId": 4287,
    "storeId": 20000000001121,
    "name": "ALANYA KEYKUBAT M MİGROS",
    "town": "Alanya",
    "city": "Antalya",
    "address": "Güllerpınarı Mah.Keykubat Cad.Bulut Sok No:71",
    "lat": 36.544529,
    "lon": 32.010156
  },
  {
    "pickPointId": 57,
    "storeId": 20000000003592,
    "name": "ALANYA MAHMUTLAR MMM MİGROS",
    "town": "Alanya",
    "city": "Antalya",
    "address": "Cumhuriyet Mah. Barbaros Cad. No:113 A B C D E",
    "lat": 36.485047,
    "lon": 32.099819
  },
  {
    "pickPointId": 2927,
    "storeId": 20000000001145,
    "name": "ALANYA MM MİGROS",
    "town": "Alanya",
    "city": "Antalya",
    "address": "Saray Mah. Atatürk Cad. NO:364",
    "lat": 36.554473,
    "lon": 31.973321
  },
  {
    "pickPointId": 3056,
    "storeId": 20000000004197,
    "name": "ALANYA OKURCALAR M MİGROS",
    "town": "Alanya",
    "city": "Antalya",
    "address": "Karaburun Mah.Aplaslan Türkeş Bulvarı No:268-A",
    "lat": 36.65462208,
    "lon": 31.67538741
  },
  {
    "pickPointId": 58,
    "storeId": 20000000005983,
    "name": "ALANYA SAHİL ANTALYA MM MİGROS",
    "town": "Alanya",
    "city": "Antalya",
    "address": "Güller Pınar Mah.A.Tokuş Bulv No:39/A",
    "lat": 36.543973,
    "lon": 32.007256
  },
  {
    "pickPointId": 3127,
    "storeId": 20000000007015,
    "name": "ALANYA TÜRKLER M MİGROS",
    "town": "Alanya",
    "city": "Antalya",
    "address": "Türkler Mah. Akdeniz Bulvarı No:45/1",
    "lat": 36.608334,
    "lon": 31.784147
  },
  {
    "pickPointId": 3995,
    "storeId": 20000000008623,
    "name": "ATATÜRK BLV ALANYA M MİGROS",
    "town": "Alanya",
    "city": "Antalya",
    "address": "Mahmutlar Mah. Atatürk Cad. No:161/A",
    "lat": 36.479444,
    "lon": 32.111389
  },
  {
    "pickPointId": 3989,
    "storeId": 20000000009168,
    "name": "AZURA WORLD ALANYA  ANT MİGROS",
    "town": "Alanya",
    "city": "Antalya",
    "address": "Türkler Mahallesi Kargi Çayi Caddesi No:10I A/B",
    "lat": 36.601989,
    "lon": 31.805677
  },
  {
    "pickPointId": 3988,
    "storeId": 20000000009242,
    "name": "BEKTAŞ CD ALANYA  ANTALYA M",
    "town": "Alanya",
    "city": "Antalya",
    "address": "Bektaş Mah. Bektaş Cad.28/3- 28/B-C",
    "lat": 36.562777,
    "lon": 32.007004
  },
  {
    "pickPointId": 2934,
    "storeId": 20000000001788,
    "name": "DAMLATAŞ M MİGROS",
    "town": "Alanya",
    "city": "Antalya",
    "address": "Saray Mah.İİsmet Hilmi Balcı Cad.NO:62 Damlataş",
    "lat": 36.5449,
    "lon": 31.98849
  },
  {
    "pickPointId": 3490,
    "storeId": 20000000005199,
    "name": "DÖRTYOL MAHMUTLAR ANTALYA M",
    "town": "Alanya",
    "city": "Antalya",
    "address": "Mahmutlar Mah. Atatürk Cad. No:296/B",
    "lat": 36.469444,
    "lon": 32.116389
  },
  {
    "pickPointId": 4001,
    "storeId": 20000000008030,
    "name": "EXTRAMALL TÜRKLER ALANYA ANT M",
    "town": "Alanya",
    "city": "Antalya",
    "address": "Türkler Mah. Atatürk Cad.",
    "lat": 36.600769,
    "lon": 31.815351
  },
  {
    "pickPointId": 3515,
    "storeId": 20000000009474,
    "name": "GOLD CİTY ALANYA ANTALYA M",
    "town": "Alanya",
    "city": "Antalya",
    "address": "KARGICAK MH. FATİH CD. NO65 İÇ KAPI NO 1-2-3",
    "lat": 36.4783,
    "lon": 32.1342
  },
  {
    "pickPointId": 3647,
    "storeId": 20000000007733,
    "name": "GÜLLER PINARI MAH. ANTALYA M",
    "town": "Alanya",
    "city": "Antalya",
    "address": "Güller Pınarı Mah. Hasan Akçalıoğlu Cad.",
    "lat": 36.5472,
    "lon": 32.012242
  },
  {
    "pickPointId": 3648,
    "storeId": 20000000009250,
    "name": "HACET CD ALANYA  ANTALYA M",
    "town": "Alanya",
    "city": "Antalya",
    "address": "GÜLLERPINARI MAH.EMİNPAŞA SOKAK NO:9A-B",
    "lat": 36.5492,
    "lon": 32.0086
  },
  {
    "pickPointId": 3061,
    "storeId": 20000000008621,
    "name": "HASTANE CD ALANYA ANT M",
    "town": "Alanya",
    "city": "Antalya",
    "address": "Oba Mah Oba Fabriklar Cad. No:17/ A-B",
    "lat": 36.538149,
    "lon": 32.04509
  },
  {
    "pickPointId": 2616,
    "storeId": 20000000008600,
    "name": "KARGICAK ALANYA ANT M MİGROS",
    "town": "Alanya",
    "city": "Antalya",
    "address": "Karagedik Mah Köyiçi Cad No 2A/13 Kargıcak",
    "lat": 36.458086,
    "lon": 32.124281
  },
  {
    "pickPointId": 2930,
    "storeId": 20000000007256,
    "name": "KARGICAK PREMİUM ANTALYA MM",
    "town": "Alanya",
    "city": "Antalya",
    "address": "Kargıcak Mah.Merkez 25 Sk.No:7 A",
    "lat": 36.453968,
    "lon": 32.125044
  },
  {
    "pickPointId": 3981,
    "storeId": 20000000009565,
    "name": "KILIÇARSLAN MAHMUTLAR ANT M",
    "town": "Alanya",
    "city": "Antalya",
    "address": "MAHMUTLAR MAHALLESİ KILIÇARSLAN CAD. NO:11/",
    "lat": 36.4934,
    "lon": 32.1005
  },
  {
    "pickPointId": 1798,
    "storeId": 20000000003544,
    "name": "KONAKLI ALANYA ANTALYA MMM",
    "town": "Alanya",
    "city": "Antalya",
    "address": "Konaklı Beldesi,Telatiye Mah.İstiklal Cad.No:28",
    "lat": 36.59294,
    "lon": 31.858753
  },
  {
    "pickPointId": 3181,
    "storeId": 20000000007931,
    "name": "KONAKLI ÇEVREYOLU ANTALYA M",
    "town": "Alanya",
    "city": "Antalya",
    "address": "Konaklı Mah. Mustafa Kemal Bulvarı No:84A",
    "lat": 36.584678,
    "lon": 31.890439
  },
  {
    "pickPointId": 1773,
    "storeId": 20000000006501,
    "name": "MAHMUTLAR VATAN ALANYA MMM",
    "town": "Alanya",
    "city": "Antalya",
    "address": "Mahmutlar Mah.Barbaros Cad.Konak Sea Side Tower",
    "lat": 36.493629,
    "lon": 32.090377
  },
  {
    "pickPointId": 3996,
    "storeId": 20000000008417,
    "name": "MEHMET AKİF ERSOY ALANYA ANT M",
    "town": "Alanya",
    "city": "Antalya",
    "address": "Kızlarpınarı Mah. Mehmet Akif Ersoy Cad.",
    "lat": 36.5515,
    "lon": 31.9864
  },
  {
    "pickPointId": 3523,
    "storeId": 20000000003790,
    "name": "MJET MAHMUTLAR CUMHURİYET",
    "town": "Alanya",
    "city": "Antalya",
    "address": "Cumhuriyet Mh Şükrü Top Cd No: 4 Mahmutlar",
    "lat": 36.474434,
    "lon": 32.110004
  },
  {
    "pickPointId": 3516,
    "storeId": 20000000007973,
    "name": "OBA DREAMS ALANYA ANTALYA M",
    "town": "Alanya",
    "city": "Antalya",
    "address": "Oba Mah. Bedenliler Sok. 18 BA, BB",
    "lat": 36.537072,
    "lon": 32.055591
  },
  {
    "pickPointId": 2047,
    "storeId": 20000000006412,
    "name": "OBA ÇEVREYOLU ALANYA ANTALYA M",
    "town": "Alanya",
    "city": "Antalya",
    "address": "Çıplaklı Mah. 3002 Sokak Ihlamur Konutları",
    "lat": 36.549774,
    "lon": 32.042656
  },
  {
    "pickPointId": 2049,
    "storeId": 20000000007224,
    "name": "OBAGÖL SAHİL ALANYA M MİGROS",
    "town": "Alanya",
    "city": "Antalya",
    "address": "Tosmur Mah. 8. Sok. No:1 A/A,A/B,A/C,A/D",
    "lat": 36.530058,
    "lon": 32.043237
  },
  {
    "pickPointId": 2872,
    "storeId": 20000000009045,
    "name": "SUGÖZÜ ALANYA ANTALYA M",
    "town": "Alanya",
    "city": "Antalya",
    "address": "Hacet Mah Alaiye Cad No:88/A",
    "lat": 36.549128,
    "lon": 31.998976
  },
  {
    "pickPointId": 2948,
    "storeId": 20000000003875,
    "name": "TOSMUR ALANYA MMM MİGROS",
    "town": "Alanya",
    "city": "Antalya",
    "address": "Merkez Mah.İbrahim Bilgen Bulv.12 Sok.No:4",
    "lat": 36.531412,
    "lon": 32.04668
  },
  {
    "pickPointId": 3180,
    "storeId": 20000000008620,
    "name": "TOSMUR SAHİL ALANYA M",
    "town": "Alanya",
    "city": "Antalya",
    "address": "Aşağı Oba Mah. İ. Bilgen Cad. No:12",
    "lat": 36.526975,
    "lon": 32.049751
  },
  {
    "pickPointId": 3649,
    "storeId": 20000000006951,
    "name": "VİZYONPARK ALANYA M MİGROS",
    "town": "Alanya",
    "city": "Antalya",
    "address": "Sugözü Mah Stad Cad. No:4",
    "lat": 36.553026,
    "lon": 31.9933
  },
  {
    "pickPointId": 4005,
    "storeId": 20000000007487,
    "name": "YEKTA MALL ALANYA ANTALYA M",
    "town": "Alanya",
    "city": "Antalya",
    "address": "Mahmutlar Mah. Mahmutlar Atatürk Cd. No:123DH/85",
    "lat": 36.484853,
    "lon": 32.1059384
  },
  {
    "pickPointId": 3987,
    "storeId": 20000000009427,
    "name": "YÜZBAŞIOĞLU CD ALANYA ANT M",
    "town": "Alanya",
    "city": "Antalya",
    "address": "OBA MAH. 11050 SOK.",
    "lat": 36.5425,
    "lon": 32.0397
  },
  {
    "pickPointId": 4003,
    "storeId": 20000000007818,
    "name": "ÇARŞAMBA CADDESİ ALANYA M",
    "town": "Alanya",
    "city": "Antalya",
    "address": "Oba Mah. Çarşamba Cd. No:36",
    "lat": 36.552684,
    "lon": 32.05036
  },
  {
    "pickPointId": 2715,
    "storeId": 20000000008757,
    "name": "İSA KÜÇÜLMEZ CD ALANYA ANT M",
    "town": "Alanya",
    "city": "Antalya",
    "address": "Kestel Mah. İsa Küçülmez Cad No:170AB",
    "lat": 36.5045,
    "lon": 32.0822
  },
  {
    "pickPointId": 2108,
    "storeId": 20000000006895,
    "name": "DEMRE M MİGROS",
    "town": "Demre",
    "city": "Antalya",
    "address": "Gökyazı Mah. Noel Baba Cad. No:13",
    "lat": 36.24173581,
    "lon": 29.9860147
  },
  {
    "pickPointId": 2925,
    "storeId": 20000000008948,
    "name": "DEMRE MYROS ANTALYA MM MİGROS",
    "town": "Demre",
    "city": "Antalya",
    "address": "GÖKYAZI MAH. NOEL BABA CAD. NO:2 Z09",
    "lat": 36.2417,
    "lon": 29.9841
  },
  {
    "pickPointId": 3628,
    "storeId": 20000000006754,
    "name": "MJET DEMRE BÜYÜKKUM",
    "town": "Demre",
    "city": "Antalya",
    "address": "Büyükkum Mah. Finike Cad No:4",
    "lat": 36.238438,
    "lon": 29.989598
  },
  {
    "pickPointId": 3633,
    "storeId": 20000000008744,
    "name": "MJET SAHİL DEMRE ANTALYA",
    "town": "Demre",
    "city": "Antalya",
    "address": "Büyükkum Mah. Tokgözler Sok No:3B",
    "lat": 36.2302,
    "lon": 29.9908
  },
  {
    "pickPointId": 2724,
    "storeId": 20000000008671,
    "name": "AKAR LİFE DÖŞEMEALTI ANTALYA M",
    "town": "Döşemealtı",
    "city": "Antalya",
    "address": "Altınkale Mah. Göktürk Cad.B.No:10 A-B-C NO:25",
    "lat": 37.0241,
    "lon": 30.6357
  },
  {
    "pickPointId": 3045,
    "storeId": 20000000008747,
    "name": "BAHÇEYAKA MH DÖŞEMEALTI ANT MM",
    "town": "Döşemealtı",
    "city": "Antalya",
    "address": "BAHÇEYAKA MAH. ATATÜRK CAD.",
    "lat": 37.0133,
    "lon": 30.5994
  },
  {
    "pickPointId": 2440,
    "storeId": 20000000003657,
    "name": "DÖŞEMEALTI ANTALYA MM MİGROS",
    "town": "Döşemealtı",
    "city": "Antalya",
    "address": "Altınkale Mah.Atatürk Cad.No:276",
    "lat": 37.004202,
    "lon": 30.597771
  },
  {
    "pickPointId": 2609,
    "storeId": 20000000006356,
    "name": "DÖŞEMEALTI TOKİ ANTALYA M",
    "town": "Döşemealtı",
    "city": "Antalya",
    "address": "Çıplaklı Mh.Fatih Sultan Mehmet Cd. No:238/A-B-C-D",
    "lat": 37.048034,
    "lon": 30.617063
  },
  {
    "pickPointId": 2062,
    "storeId": 20000000006850,
    "name": "DÖŞEMEALTI YENIKÖY ANTALYA M",
    "town": "Döşemealtı",
    "city": "Antalya",
    "address": "Yeniköy Mah.  Atatürk Cad. No:600/A",
    "lat": 37.03776,
    "lon": 30.59991
  },
  {
    "pickPointId": 1718,
    "storeId": 20000000005229,
    "name": "ÇEVREYOLU DÖŞEMEALTI ANT MM",
    "town": "Döşemealtı",
    "city": "Antalya",
    "address": "Yeşilbayır Mah. Akdeniz Bulvarı No:60",
    "lat": 36.981944,
    "lon": 30.626111
  },
  {
    "pickPointId": 3055,
    "storeId": 20000000008679,
    "name": "AKÇAY MH ELMALI ANT M MİGROS",
    "town": "Elmalı",
    "city": "Antalya",
    "address": "Akçay Mah.Atatürk Olukbaşı Sok.42/A",
    "lat": 36.5985,
    "lon": 29.7457
  },
  {
    "pickPointId": 53,
    "storeId": 20000000005114,
    "name": "ELMALI ANTALYA M MİGROS",
    "town": "Elmalı",
    "city": "Antalya",
    "address": "Yenimahalle Demirel Bulvarı B Blok No:150/A",
    "lat": 36.734722,
    "lon": 29.920833
  },
  {
    "pickPointId": 55,
    "storeId": 20000000005236,
    "name": "FİNİKE SAHİL ANTALYA M MİGROS",
    "town": "Finike",
    "city": "Antalya",
    "address": "Kale Mah. Şerbetçi Bulvarı No:60/1-2-3-4",
    "lat": 36.293889,
    "lon": 30.146944
  },
  {
    "pickPointId": 3505,
    "storeId": 20000000009086,
    "name": "KUM MH FİNİKE ANTALYA M MİGROS",
    "town": "Finike",
    "city": "Antalya",
    "address": "Kum Mahallesi Şehit Turgut Burkay Korkmaz Bulvari",
    "lat": 36.3103649,
    "lon": 30.1590177
  },
  {
    "pickPointId": 3662,
    "storeId": 20000000003861,
    "name": "MJET FİNİKE ANTALYA",
    "town": "Finike",
    "city": "Antalya",
    "address": "Yeni Mh Fatih Cd No 20/1-2",
    "lat": 36.301664,
    "lon": 30.146372
  },
  {
    "pickPointId": 3634,
    "storeId": 20000000006443,
    "name": "MJET SAHİLKENT FİNİKE ANTALYA",
    "town": "Finike",
    "city": "Antalya",
    "address": "Kum Mah. İnönü Cad. No:4A/Z1-22",
    "lat": 36.305572,
    "lon": 30.15202
  },
  {
    "pickPointId": 3635,
    "storeId": 20000000006442,
    "name": "MJET TURUNÇOVA FİNİKE ANTALYA",
    "town": "Finike",
    "city": "Antalya",
    "address": "Turunçova Mah Çağatay Sok. No:2/9",
    "lat": 36.350545,
    "lon": 30.134006
  },
  {
    "pickPointId": 3918,
    "storeId": 20000000009839,
    "name": "GAZİPAŞA ANT M",
    "town": "Gazipaşa",
    "city": "Antalya",
    "address": "İSTİKLAL MAH. ŞEHİT  KD. ÜST. ÇVŞ.SÜLEYMANGÜR BUL.",
    "lat": 36.269469,
    "lon": 32.316931
  },
  {
    "pickPointId": 3179,
    "storeId": 20000000008853,
    "name": "GAZİPAŞA AİRPORT AVM ANTALYA M",
    "town": "Gazipaşa",
    "city": "Antalya",
    "address": "BEYOBAŞI MH. SANAYİ KÜME EVLER NO7",
    "lat": 36.287478,
    "lon": 32.294447
  },
  {
    "pickPointId": 2931,
    "storeId": 20000000008928,
    "name": "AĞULLU MH KAŞ ANTALYA M MİGROS",
    "town": "Kaş",
    "city": "Antalya",
    "address": "AĞULLU MAH. ANTALYA YOLU ÜZERİ SOK.",
    "lat": 36.2175,
    "lon": 29.6861
  },
  {
    "pickPointId": 2432,
    "storeId": 20000000006494,
    "name": "KALAMAR YOLU KALKAN M MİGROS",
    "town": "Kaş",
    "city": "Antalya",
    "address": "Kalkan Mh.Defne Sk.C Blok No:7/1",
    "lat": 36.265528,
    "lon": 29.40759
  },
  {
    "pickPointId": 609,
    "storeId": 20000000003719,
    "name": "KALKAN ANTALYA M MİGROS",
    "town": "Kaş",
    "city": "Antalya",
    "address": "Menteşe Mh Şehitler Cd No: 14 Kalkan",
    "lat": 36.264683,
    "lon": 29.416419
  },
  {
    "pickPointId": 56,
    "storeId": 20000000001171,
    "name": "KAŞ M MİGROS",
    "town": "Kaş",
    "city": "Antalya",
    "address": "Andifli Mah. Uğur Mumcu Cad .No:5/A",
    "lat": 36.20161,
    "lon": 29.63825
  },
  {
    "pickPointId": 3506,
    "storeId": 20000000003774,
    "name": "KAŞ MARİNA ANTALYA M MİGROS",
    "town": "Kaş",
    "city": "Antalya",
    "address": "Uğur Mumcu Cd Bucak Denizi Acısu Mevkii",
    "lat": 36.203883,
    "lon": 29.632872
  },
  {
    "pickPointId": 2107,
    "storeId": 20000000007214,
    "name": "KAŞ OVA ANTALYA M MİGROS",
    "town": "Kaş",
    "city": "Antalya",
    "address": "Atatürk Bulv.Ova Mah.No:203",
    "lat": 36.323604,
    "lon": 29.330021
  },
  {
    "pickPointId": 3624,
    "storeId": 20000000009294,
    "name": "MJET AKBEL SK KAŞ ANTALYA",
    "town": "Kaş",
    "city": "Antalya",
    "address": "Akbel Sk.İslamlar Mah. No:422 6a, 6b",
    "lat": 36.2793645,
    "lon": 29.4092656
  },
  {
    "pickPointId": 3625,
    "storeId": 20000000006521,
    "name": "MJET BEZİRGAN KAŞ ANTALYA",
    "town": "Kaş",
    "city": "Antalya",
    "address": "Bezirgan Mah. Ulugöl Sok No :775/1",
    "lat": 36.243799,
    "lon": 29.427803
  },
  {
    "pickPointId": 3629,
    "storeId": 20000000008367,
    "name": "MJET GÖMBE MH KAŞ ANTALYA",
    "town": "Kaş",
    "city": "Antalya",
    "address": "Gömbe Mah. Söğütcük Cad. Dış Kapı No:1/3",
    "lat": 36.5524,
    "lon": 29.6697
  },
  {
    "pickPointId": 3101,
    "storeId": 20000000007037,
    "name": "MJET KALKAN KÖRDERE MAH KAŞ",
    "town": "Kaş",
    "city": "Antalya",
    "address": "Bezirgan Mah..Kördere Sok.No:708B",
    "lat": 36.262616,
    "lon": 29.427013
  },
  {
    "pickPointId": 3630,
    "storeId": 20000000005621,
    "name": "MJET KALKAN MERKEZ ANTALYA",
    "town": "Kaş",
    "city": "Antalya",
    "address": "Kalkan Mah Şehitler Cad. No:43/3",
    "lat": 36.2661,
    "lon": 29.4141
  },
  {
    "pickPointId": 3637,
    "storeId": 20000000008316,
    "name": "MJET KAŞ ANTALYA PO",
    "town": "Kaş",
    "city": "Antalya",
    "address": "Andifli Mah. Atatürk Bulv. No:36",
    "lat": 36.2018,
    "lon": 29.6387
  },
  {
    "pickPointId": 3636,
    "storeId": 20000000008880,
    "name": "MJET YEŞİLKÖY KAŞ ANTALYA",
    "town": "Kaş",
    "city": "Antalya",
    "address": "Yeşilköy Mah. Atatürk Bulv. No:174A/1",
    "lat": 36.2828,
    "lon": 29.3582
  },
  {
    "pickPointId": 3626,
    "storeId": 20000000008416,
    "name": "MJET ÇAVDIR KAŞ ANTALYA",
    "town": "Kaş",
    "city": "Antalya",
    "address": "Çavdır Mah.Merkez Çavdır Sok No:27/1 İçKapı 1",
    "lat": 36.3638,
    "lon": 29.353
  },
  {
    "pickPointId": 3627,
    "storeId": 20000000005851,
    "name": "MJET ÇERÇİLER MAH.KAŞ ANTALYA",
    "town": "Kaş",
    "city": "Antalya",
    "address": "Andifli Mah. Hürriyet Cad. No:20 A",
    "lat": 36.199431,
    "lon": 29.654714
  },
  {
    "pickPointId": 3982,
    "storeId": 20000000009638,
    "name": "BAŞKOMUTAN ATATÜRK CD ANT M",
    "town": "Kemer",
    "city": "Antalya",
    "address": "BELDİBİ MAHALLESİ BAŞKOMUTAN ATATÜRK CADDESİ",
    "lat": 36.7309643,
    "lon": 30.5625601
  },
  {
    "pickPointId": 3984,
    "storeId": 20000000009459,
    "name": "BELPINAR KEMER ANTALYA M",
    "town": "Kemer",
    "city": "Antalya",
    "address": "Beldibi Mahallesi Başkomutan Atatürk Cad. No:44/A",
    "lat": 36.7376527,
    "lon": 30.5634593
  },
  {
    "pickPointId": 3653,
    "storeId": 20000000009457,
    "name": "GÖYNÜK ANTALYA MM MİGROS",
    "town": "Kemer",
    "city": "Antalya",
    "address": "CUMHURİYET MAH. ADNAN MENDERES",
    "lat": 36.665988,
    "lon": 30.550532
  },
  {
    "pickPointId": 2935,
    "storeId": 20000000003954,
    "name": "KEMER MERKEZ ANTALYA M MİGROS",
    "town": "Kemer",
    "city": "Antalya",
    "address": "Yeni Mah. Dörtyol Blv. NO:15",
    "lat": 36.601154,
    "lon": 30.556581
  },
  {
    "pickPointId": 610,
    "storeId": 20000000001144,
    "name": "KEMER MM MİGROS",
    "town": "Kemer",
    "city": "Antalya",
    "address": "Akdeniz Cad. Aslanbucak Mah. 469.Sokak No:88",
    "lat": 36.59467,
    "lon": 30.5442
  },
  {
    "pickPointId": 3992,
    "storeId": 20000000008812,
    "name": "KUZDERE MH. KEMER ANTALYA M",
    "town": "Kemer",
    "city": "Antalya",
    "address": "Kuzdere Mah. Mustafa Kemal Cad. No:55/1",
    "lat": 36.582,
    "lon": 30.5277
  },
  {
    "pickPointId": 3654,
    "storeId": 20000000002037,
    "name": "ÇAMYUVA KEMER M MİGROS",
    "town": "Kemer",
    "city": "Antalya",
    "address": "Çamyuva Merkez Mah. Atatürk CAD. 15.Sokak .NO:3",
    "lat": 36.56844,
    "lon": 30.55665
  },
  {
    "pickPointId": 2924,
    "storeId": 20000000007748,
    "name": "ÇAMYUVA ÇEVREYOLU ANTALYA MM",
    "town": "Kemer",
    "city": "Antalya",
    "address": "Çamyuva Mah. 5111 Sokak No:2 D:1- D:2",
    "lat": 36.547465,
    "lon": 30.550237
  },
  {
    "pickPointId": 4002,
    "storeId": 20000000007866,
    "name": "1207 ANTALYA PRESTİGE M",
    "town": "Kepez",
    "city": "Antalya",
    "address": "Güneş Mah.Kırçiçeği Cad.No:15 EA,EB,EC",
    "lat": 36.928012,
    "lon": 30.742558
  },
  {
    "pickPointId": 2733,
    "storeId": 20000000008178,
    "name": "ALTINOVA DÜDEN ANTALYA M",
    "town": "Kepez",
    "city": "Antalya",
    "address": "Altınova Düden Mah. Antalya-1 Cad. C/Blok",
    "lat": 36.92445,
    "lon": 30.764961
  },
  {
    "pickPointId": 3616,
    "storeId": 20000000009346,
    "name": "AYANOĞLU MH ANTALYA MM MİGROS",
    "town": "Kepez",
    "city": "Antalya",
    "address": "AYANOĞLU MAH. SÜLEYMAN DEMİREL BULV.",
    "lat": 36.971,
    "lon": 30.7145
  },
  {
    "pickPointId": 2726,
    "storeId": 20000000003908,
    "name": "ERASTA AVM ANTALYA MMM MİGROS",
    "town": "Kepez",
    "city": "Antalya",
    "address": "Dumlupınar Blv Erasta AVM No:48",
    "lat": 36.907221,
    "lon": 30.664501
  },
  {
    "pickPointId": 4000,
    "storeId": 20000000007864,
    "name": "ESENTEPE MH.KEPEZ ANTALYA M",
    "town": "Kepez",
    "city": "Antalya",
    "address": "Esentepe Mah. Şehit Üst Teğmen Gökhan Korkut Cad.",
    "lat": 36.934341,
    "lon": 30.667948
  },
  {
    "pickPointId": 2441,
    "storeId": 20000000007990,
    "name": "FATİH TERİM CD.KEPEZ ANTALYA M",
    "town": "Kepez",
    "city": "Antalya",
    "address": "Aydoğmuş Mah. Fatih Terim Cad.No: 28/A-B",
    "lat": 36.976109,
    "lon": 30.708878
  },
  {
    "pickPointId": 3681,
    "storeId": 20000000009267,
    "name": "GÖÇERLER MH KEPEZ ANTALYA MM",
    "town": "Kepez",
    "city": "Antalya",
    "address": "Göçerler Mh. Şehit Üstteğmen Gökhan Korkut Cad.",
    "lat": 36.9421,
    "lon": 30.6605
  },
  {
    "pickPointId": 2728,
    "storeId": 20000000008628,
    "name": "GÜNDOĞDU MH KEPEZ ANT M MİGROS",
    "town": "Kepez",
    "city": "Antalya",
    "address": "Gündoğdu Mah.2481 Sokak.No:3",
    "lat": 36.928619,
    "lon": 30.707966
  },
  {
    "pickPointId": 3993,
    "storeId": 20000000008627,
    "name": "GÜNEŞ MH KEPEZ ANT M MİGROS",
    "town": "Kepez",
    "city": "Antalya",
    "address": "Güneş Mah. Necip Fazıl Kısakürek Cad. No:133/A-B",
    "lat": 36.919135,
    "lon": 30.733179
  },
  {
    "pickPointId": 2400,
    "storeId": 20000000008521,
    "name": "HABİPLER MH KEPEZ ANTALYA M",
    "town": "Kepez",
    "city": "Antalya",
    "address": "Habibler Mah. Elmalılı Hamdi Yazır Cad.1A Blok",
    "lat": 36.941798,
    "lon": 30.730563
  },
  {
    "pickPointId": 1930,
    "storeId": 20000000007269,
    "name": "HASTANE CAD. KEPEZ  ANTALYA MM",
    "town": "Kepez",
    "city": "Antalya",
    "address": "Mehmet Akif Ersoy Mah. 15 Temmuz Şehitler Cad.",
    "lat": 36.926183,
    "lon": 30.726142
  },
  {
    "pickPointId": 2363,
    "storeId": 20000000006654,
    "name": "KEPEZ MEHMET ATAY M MİGROS",
    "town": "Kepez",
    "city": "Antalya",
    "address": "Güneş Mah.Ömer Buyrukçu Cad.No:60",
    "lat": 36.924115,
    "lon": 30.73305
  },
  {
    "pickPointId": 3985,
    "storeId": 20000000009123,
    "name": "KIRÇİÇEĞİ CD KEPEZ ANTALYA M",
    "town": "Kepez",
    "city": "Antalya",
    "address": "Baraj Mahallesi Kirçiçeği Cad.No:80/A",
    "lat": 36.9419,
    "lon": 30.7412
  },
  {
    "pickPointId": 2297,
    "storeId": 20000000005296,
    "name": "KÜLTÜR MAH KEPEZ ANTALYA MM",
    "town": "Kepez",
    "city": "Antalya",
    "address": "Kültür Mah. Hürriyet Cad.A Apt.No:42/AB",
    "lat": 36.900556,
    "lon": 30.654167
  },
  {
    "pickPointId": 1761,
    "storeId": 20000000005309,
    "name": "MALL OF ANTALYA MMM MİGROS",
    "town": "Kepez",
    "city": "Antalya",
    "address": "Altınova Sinan Mahallesi Serik Caddesi No:309-33",
    "lat": 36.922222,
    "lon": 30.785278
  },
  {
    "pickPointId": 4013,
    "storeId": 20000000005854,
    "name": "MASA DAĞI KEPEZ M MİGROS",
    "town": "Kepez",
    "city": "Antalya",
    "address": "Çankaya Mah.Barış Manço Blv.No:247-247/1",
    "lat": 36.9503079,
    "lon": 30.6747032
  },
  {
    "pickPointId": 2070,
    "storeId": 20000000006414,
    "name": "MEHMET AKİF KEPEZ ANTALYA M",
    "town": "Kepez",
    "city": "Antalya",
    "address": "Varsak,Karşıyaka Mh.Mehmet Akif Ersoy Cd.E Blok Ap",
    "lat": 36.963774,
    "lon": 30.709177
  },
  {
    "pickPointId": 3655,
    "storeId": 20000000005878,
    "name": "MJET ŞAFAK MAH. SANAYİİ KEPEZ",
    "town": "Kepez",
    "city": "Antalya",
    "address": "Şafak Mah. Ahmet Hamdi Akseki Cad. No.32/AB",
    "lat": 36.9150311,
    "lon": 30.6378498
  },
  {
    "pickPointId": 3638,
    "storeId": 20000000008618,
    "name": "SÜTÇÜLER KEPEZ ANT M MİGROS",
    "town": "Kepez",
    "city": "Antalya",
    "address": "Gazi Mah. Sütçüler Cad. No:63/A",
    "lat": 36.937043,
    "lon": 30.719851
  },
  {
    "pickPointId": 3639,
    "storeId": 20000000008970,
    "name": "TOPTANCI HAL CD KEPEZ ANT M",
    "town": "Kepez",
    "city": "Antalya",
    "address": "GÖKSU MAH. NENE HATUN CAD. NO:1/53",
    "lat": 36.9142,
    "lon": 30.7409
  },
  {
    "pickPointId": 2729,
    "storeId": 20000000008702,
    "name": "ULUBATLI HASAN CD KEPEZ ANT M",
    "town": "Kepez",
    "city": "Antalya",
    "address": "Fevzi Çakmak Mah Ulubatlı Hasan Cad G Blok No:64",
    "lat": 36.948582,
    "lon": 30.694565
  },
  {
    "pickPointId": 2727,
    "storeId": 20000000003995,
    "name": "VARSAK ANTALYA M MİGROS",
    "town": "Kepez",
    "city": "Antalya",
    "address": "Ayanoğlu Mah 1809 Sk Sevim Mengi Apt No 3/12",
    "lat": 36.950277,
    "lon": 30.708055
  },
  {
    "pickPointId": 3720,
    "storeId": 20000000006076,
    "name": "YENİDOĞAN MAH. ANTALYA M",
    "town": "Kepez",
    "city": "Antalya",
    "address": "Yeni Doğan Mah.3096 Sok.Ant. Büyükşehir Beld.Site.",
    "lat": 36.9171,
    "lon": 30.6624
  },
  {
    "pickPointId": 2412,
    "storeId": 20000000008619,
    "name": "ÇANKAYA MH KEPEZ ANT M MİGROS",
    "town": "Kepez",
    "city": "Antalya",
    "address": "Çankaya Mah. Barış Manço Bulvarı No:158/A-B",
    "lat": 36.934372,
    "lon": 30.681981
  },
  {
    "pickPointId": 2109,
    "storeId": 20000000007638,
    "name": "ÜNSAL MH KEPEZ ANTALYA MM",
    "town": "Kepez",
    "city": "Antalya",
    "address": "Ünsal Mh. 5108 Sk. No: 24 D:1",
    "lat": 36.92826,
    "lon": 30.634864
  },
  {
    "pickPointId": 1970,
    "storeId": 20000000005060,
    "name": "ŞAFAK MAH KEPEZ ANTALYA M",
    "town": "Kepez",
    "city": "Antalya",
    "address": "Şafak Mah.4261.Sokak No:4",
    "lat": 36.912314,
    "lon": 30.645447
  },
  {
    "pickPointId": 402,
    "storeId": 20000000000971,
    "name": "5M ANTALYA",
    "town": "Konyaaltı",
    "city": "Antalya",
    "address": "Arapsuyu Mah.Atatürk Bulv. 5M MİGROS Apt.No:3/Z18",
    "lat": 36.882618,
    "lon": 30.659414
  },
  {
    "pickPointId": 46,
    "storeId": 20000000003951,
    "name": "ARAPSUYU ANTALYA MM MİGROS",
    "town": "Konyaaltı",
    "city": "Antalya",
    "address": "Toros Mah. Atatürk Bulvarı NO:42/1",
    "lat": 36.879046,
    "lon": 30.648229
  },
  {
    "pickPointId": 3990,
    "storeId": 20000000008855,
    "name": "BAHTILI MH KONYAALTI ANT M",
    "town": "Konyaaltı",
    "city": "Antalya",
    "address": "BAHTILI MAH. ULUÖNDER ATATÜRK CAD.",
    "lat": 36.8824,
    "lon": 30.5705
  },
  {
    "pickPointId": 3658,
    "storeId": 20000000008502,
    "name": "BELEDİYE CD KONYAALTI ANT M",
    "town": "Konyaaltı",
    "city": "Antalya",
    "address": "Arapsuyu Mah. Belediye Cad. SEA LIFE LOUNGE OTEL",
    "lat": 36.875007,
    "lon": 30.653065
  },
  {
    "pickPointId": 50,
    "storeId": 20000000006369,
    "name": "CASABA ANTALYA M MİGROS",
    "town": "Konyaaltı",
    "city": "Antalya",
    "address": "Gürsu Mah. 355.Sokak N Blok No:15",
    "lat": 36.864956,
    "lon": 30.623603
  },
  {
    "pickPointId": 3917,
    "storeId": 20000000009838,
    "name": "CASAMAX KONYAALTI ANTALYA M",
    "town": "Konyaaltı",
    "city": "Antalya",
    "address": "Akkuyu Mah. Anadolu Cad.No:154 /BE",
    "lat": 36.88886,
    "lon": 30.63855
  },
  {
    "pickPointId": 3659,
    "storeId": 20000000003933,
    "name": "GÜRSU ANTALYA M MİGROS",
    "town": "Konyaaltı",
    "city": "Antalya",
    "address": "Gürsu Mah. Atatürk Bulvarı B Blok No:187 BC/1",
    "lat": 36.862386,
    "lon": 30.630197
  },
  {
    "pickPointId": 2061,
    "storeId": 20000000005203,
    "name": "GÜRSU KONAKLAR ANTALYA M",
    "town": "Konyaaltı",
    "city": "Antalya",
    "address": "Gürsu Mh.Emniyet Cd.Riverside Residence Apt.No:2A1",
    "lat": 36.871389,
    "lon": 30.621944
  },
  {
    "pickPointId": 3934,
    "storeId": 20000000009837,
    "name": "HURMA 252. SK KONYAALTI ANT M",
    "town": "Konyaaltı",
    "city": "Antalya",
    "address": "Hurma Mah. 252 Sokak No:31/25",
    "lat": 36.85666746,
    "lon": 30.59818201
  },
  {
    "pickPointId": 51,
    "storeId": 20000000005130,
    "name": "HURMA SARISU ANTALYA MMM",
    "town": "Konyaaltı",
    "city": "Antalya",
    "address": "Öğretmenevleri Mah. 904 Sokak No:1",
    "lat": 36.85,
    "lon": 30.598889
  },
  {
    "pickPointId": 4012,
    "storeId": 20000000006213,
    "name": "KONYAALTI EMNİYET ANTALYA M",
    "town": "Konyaaltı",
    "city": "Antalya",
    "address": "Mollayusuf Mah.1418 Sokak A2 Blok No:2A-2B",
    "lat": 36.893393,
    "lon": 30.627155
  },
  {
    "pickPointId": 3432,
    "storeId": 20000000002452,
    "name": "KONYAALTI MM MIGROS",
    "town": "Konyaaltı",
    "city": "Antalya",
    "address": "Liman Mah. Atatürk Bulvarı NO:240A",
    "lat": 36.848719,
    "lon": 30.612585
  },
  {
    "pickPointId": 3994,
    "storeId": 20000000008509,
    "name": "NAZIM HİKMET KONYAALTI ANT M",
    "town": "Konyaaltı",
    "city": "Antalya",
    "address": "Pınarbaşı Mah 751. Sokak DIş Kapı No:1 13A",
    "lat": 36.8849,
    "lon": 30.6498
  },
  {
    "pickPointId": 2262,
    "storeId": 20000000007069,
    "name": "PINARBAŞI KONYAALTI M MİGROS",
    "town": "Konyaaltı",
    "city": "Antalya",
    "address": "Pınarbaşı Mah.758 Sok.No:19/A-B",
    "lat": 36.887877,
    "lon": 30.648736
  },
  {
    "pickPointId": 1920,
    "storeId": 20000000005006,
    "name": "SARISU LİMAN M MİGROS",
    "town": "Konyaaltı",
    "city": "Antalya",
    "address": "Sarısu Mah.Akdeniz Bulvarı Sarısu Mevkii",
    "lat": 36.841173,
    "lon": 30.594611
  },
  {
    "pickPointId": 3453,
    "storeId": 20000000006016,
    "name": "UNCALI 23. CAD. ANTALYA M",
    "town": "Konyaaltı",
    "city": "Antalya",
    "address": "Uncalı Mh.Toroslar Cd.İncedağ Sit.B/Blok No:72H/1",
    "lat": 36.883664,
    "lon": 30.628277
  },
  {
    "pickPointId": 4017,
    "storeId": 20000000003986,
    "name": "UNCALI 32.CADDE ANTALYA M",
    "town": "Konyaaltı",
    "city": "Antalya",
    "address": "Uncalı Mah. 32.Cadde. NO:10/B",
    "lat": 36.881818,
    "lon": 30.622716
  },
  {
    "pickPointId": 3431,
    "storeId": 20000000001924,
    "name": "UNCALI MMM MİGROS",
    "town": "Konyaaltı",
    "city": "Antalya",
    "address": "Uncalı Mah. Uncalı Cad. Mutaş Apt No:60A/1",
    "lat": 36.88817,
    "lon": 30.62533
  },
  {
    "pickPointId": 4284,
    "storeId": 20000000007212,
    "name": "ÇAKIRLARYOLU ANTALYA M MİGROS",
    "town": "Konyaaltı",
    "city": "Antalya",
    "address": "Molla Yusuf Mah. Hürriyet Cad.NO:53/B",
    "lat": 36.896783,
    "lon": 30.609039
  },
  {
    "pickPointId": 54,
    "storeId": 20000000005042,
    "name": "KORKUTELİ ANTALYA M MİGROS",
    "town": "Korkuteli",
    "city": "Antalya",
    "address": "Kiremitli Mah 836.Sok No:5 (Belediye Arkası)",
    "lat": 37.066944,
    "lon": 30.19595
  },
  {
    "pickPointId": 3054,
    "storeId": 20000000008919,
    "name": "YENİMAHALLE KORKUTELİ ANT M",
    "town": "Korkuteli",
    "city": "Antalya",
    "address": "Yeni mahalle Antalya caddesi No:42/A",
    "lat": 37.0642,
    "lon": 30.2019
  },
  {
    "pickPointId": 1754,
    "storeId": 20000000003709,
    "name": "KUMLUCA ANTALYA MM MİGROS",
    "town": "Kumluca",
    "city": "Antalya",
    "address": "Yeni Mh Ahmet Aliağa Blv No: 120",
    "lat": 36.3562,
    "lon": 30.282727
  },
  {
    "pickPointId": 3067,
    "storeId": 20000000006970,
    "name": "KUMLUCA GÖDENE CADDESİ M",
    "town": "Kumluca",
    "city": "Antalya",
    "address": "Merkez Mah.Gödene Cad.No:112A/112B",
    "lat": 36.375996,
    "lon": 30.288391
  },
  {
    "pickPointId": 2236,
    "storeId": 20000000003985,
    "name": "KUMLUCA MEYDAN ANTALYA M",
    "town": "Kumluca",
    "city": "Antalya",
    "address": "Karşıyaka Mh Adnan Menderes Blv No 56/A",
    "lat": 36.365274,
    "lon": 30.292571
  },
  {
    "pickPointId": 3623,
    "storeId": 20000000005317,
    "name": "MJET ADRASAN KUMLUCA ANTALYA",
    "town": "Kumluca",
    "city": "Antalya",
    "address": "Adrasan Mah. Deniz Cad. No:96/3",
    "lat": 36.327427,
    "lon": 30.445541
  },
  {
    "pickPointId": 3631,
    "storeId": 20000000006444,
    "name": "MJET MAVİKENT KUMLUCA ANTALYA",
    "town": "Kumluca",
    "city": "Antalya",
    "address": "Mavikent Mah. Atatürk Cad. No: 65/A-B-C",
    "lat": 36.313829,
    "lon": 30.348872
  },
  {
    "pickPointId": 3632,
    "storeId": 20000000006768,
    "name": "MJET OLİMPOS KUMLUCA ANTALYA",
    "town": "Kumluca",
    "city": "Antalya",
    "address": "Yazır Mah.Kiliseyakası Sok. No:113",
    "lat": 36.38114,
    "lon": 30.45008
  },
  {
    "pickPointId": 3999,
    "storeId": 20000000008214,
    "name": "GÜNDOĞDU MANAVGAT ANT M MİGROS",
    "town": "Manavgat",
    "city": "Antalya",
    "address": "Yavrudoğan Mah.Muhtemet ve Peri (Küme Evleri)",
    "lat": 36.8237,
    "lon": 31.2953
  },
  {
    "pickPointId": 2978,
    "storeId": 20000000008711,
    "name": "KASAPLAR MH MANAVGAT ANT M",
    "town": "Manavgat",
    "city": "Antalya",
    "address": "Kasaplar Mah. Hasan Fehmi Boztepe Cad. No:146",
    "lat": 36.79,
    "lon": 31.4291
  },
  {
    "pickPointId": 4011,
    "storeId": 20000000006588,
    "name": "MANAVGAT KUMKÖY M MİGROS",
    "town": "Manavgat",
    "city": "Antalya",
    "address": "Ilıca Mah. Cumhuriyet Blv. No:6/D",
    "lat": 36.807832,
    "lon": 31.354919
  },
  {
    "pickPointId": 2212,
    "storeId": 20000000000730,
    "name": "MANAVGAT MM MİGROS",
    "town": "Manavgat",
    "city": "Antalya",
    "address": "Bahçelievler Mah. Antalya Cad.",
    "lat": 36.78589,
    "lon": 31.43896
  },
  {
    "pickPointId": 3651,
    "storeId": 20000000007018,
    "name": "MJET ILICA MERKEZ",
    "town": "Manavgat",
    "city": "Antalya",
    "address": "Ilıca Mah.Ilıca(Ilıca)Blv.No:28/7A",
    "lat": 36.819582,
    "lon": 31.365856
  },
  {
    "pickPointId": 400,
    "storeId": 20000000005032,
    "name": "NOVAMALL AVM MANAVGAT MMM",
    "town": "Manavgat",
    "city": "Antalya",
    "address": "Sorgun mah. 8096.Sokak No:5 Novada AVM",
    "lat": 36.781189,
    "lon": 31.425525
  },
  {
    "pickPointId": 2442,
    "storeId": 20000000005161,
    "name": "PAZARCI MANAVGAT ANTALYA M",
    "town": "Manavgat",
    "city": "Antalya",
    "address": "Y.Pazarcı Mahallesi  Mimar Sinan Cad.No:19/2",
    "lat": 36.791111,
    "lon": 31.445556
  },
  {
    "pickPointId": 3650,
    "storeId": 20000000008677,
    "name": "SORGUN ANTALYA M MİGROS",
    "town": "Manavgat",
    "city": "Antalya",
    "address": "SORGUN MAH. HÜSEYİN AVNİ AKIN CAD.",
    "lat": 36.7712,
    "lon": 31.4311
  },
  {
    "pickPointId": 2320,
    "storeId": 20000000001131,
    "name": "SİDE MMM MİGROS",
    "town": "Manavgat",
    "city": "Antalya",
    "address": "Hatipler Mah.Çakırderesi Mevkii Side Kavşağı",
    "lat": 36.79399,
    "lon": 31.41066
  },
  {
    "pickPointId": 4393,
    "storeId": 20000000003789,
    "name": "SİDE YALI ANTALYA MM MİGROS",
    "town": "Manavgat",
    "city": "Antalya",
    "address": "Yalı Mh Side Blv No: 57 Side",
    "lat": 36.785994,
    "lon": 31.395147
  },
  {
    "pickPointId": 4015,
    "storeId": 20000000005002,
    "name": "ÇOLAKLI ANTALYA M MİGROS",
    "town": "Manavgat",
    "city": "Antalya",
    "address": "Çolaklı Mah. Turizim Cad. No:43C/1",
    "lat": 36.820137,
    "lon": 31.310078
  },
  {
    "pickPointId": 4010,
    "storeId": 20000000006774,
    "name": "ÇOLAKLI ÜÇTEPELER ANTALYA M",
    "town": "Manavgat",
    "city": "Antalya",
    "address": "Çolaklı Mah, Turizm Cad (Üçtepeler).No 11/Z01",
    "lat": 36.81714,
    "lon": 31.32555
  },
  {
    "pickPointId": 4286,
    "storeId": 20000000003992,
    "name": "100.YIL ANTALYA M MİGROS",
    "town": "Muratpaşa",
    "city": "Antalya",
    "address": "Altındağ Mh 100.Yıl Blv 167 Sk No 6/D",
    "lat": 36.889987,
    "lon": 30.692784
  },
  {
    "pickPointId": 4007,
    "storeId": 20000000007140,
    "name": "1595. SK MURATPAŞA ANTALYA M",
    "town": "Muratpaşa",
    "city": "Antalya",
    "address": "Meydankavağı Mah.1595.Sok.No:30/A-B",
    "lat": 36.885336,
    "lon": 30.736026
  },
  {
    "pickPointId": 4008,
    "storeId": 20000000007079,
    "name": "ABDİ İPEKÇİ CAD. ANTALYA  M",
    "town": "Muratpaşa",
    "city": "Antalya",
    "address": "Kızılsaray Mah.Şarampol Cad.Burçak Apt.No:123 A",
    "lat": 36.893327,
    "lon": 30.701518
  },
  {
    "pickPointId": 2932,
    "storeId": 20000000004418,
    "name": "ANTALYA MEYDAN KAVAĞI M MİGROS",
    "town": "Muratpaşa",
    "city": "Antalya",
    "address": "Meydankavağı Mah.İsmail Cem Cad.",
    "lat": 36.881111,
    "lon": 30.730556
  },
  {
    "pickPointId": 3991,
    "storeId": 20000000008914,
    "name": "BARINAKLAR BLV ANTALYA M",
    "town": "Muratpaşa",
    "city": "Antalya",
    "address": "Barınaklar Bulvarı Çağlayan Mah No:62 A-B",
    "lat": 36.8514,
    "lon": 30.7692
  },
  {
    "pickPointId": 427,
    "storeId": 20000000006034,
    "name": "BURHANETTİN ONAT CAD ANT MMM",
    "town": "Muratpaşa",
    "city": "Antalya",
    "address": "Zerdalilik Mah. Burhanettin Cad No:94 A/B",
    "lat": 36.878,
    "lon": 30.7167
  },
  {
    "pickPointId": 3986,
    "storeId": 20000000009122,
    "name": "CUMHURİYET MH. MURATPAŞA ANT M",
    "town": "Muratpaşa",
    "city": "Antalya",
    "address": "Cumhuriyet Mh. 662 Sk. Dış Kapı No:25 İç Kapı No:",
    "lat": 36.905268,
    "lon": 30.696648
  },
  {
    "pickPointId": 3620,
    "storeId": 20000000009333,
    "name": "DOĞU GARAJI TİC MERKEZİ ANT M",
    "town": "Muratpaşa",
    "city": "Antalya",
    "address": "Çaybaşi Mahallesi Cebesoy Caddesi Doğu Garaji",
    "lat": 36.888483,
    "lon": 30.7121638
  },
  {
    "pickPointId": 2058,
    "storeId": 20000000006035,
    "name": "DUTLUBAHÇE MAH. ANTALYA M",
    "town": "Muratpaşa",
    "city": "Antalya",
    "address": "Dutlubahçe Mah.Karacaoğlan Cad.No:15/A-17/A",
    "lat": 36.903818,
    "lon": 30.702977
  },
  {
    "pickPointId": 1976,
    "storeId": 20000000005984,
    "name": "FENER CAD. ANTALYA MM MİGROS",
    "town": "Muratpaşa",
    "city": "Antalya",
    "address": "Çağlayan Mah.Bülent Ecevit Bulvı, No:97/A",
    "lat": 36.857865,
    "lon": 30.763643
  },
  {
    "pickPointId": 3621,
    "storeId": 20000000005666,
    "name": "GEBİZLİ ANTALYA M MİGROS",
    "town": "Muratpaşa",
    "city": "Antalya",
    "address": "Doğuyaka Mah.Termessos Bulv.A Blok No:35/A",
    "lat": 36.898573,
    "lon": 30.735602
  },
  {
    "pickPointId": 4004,
    "storeId": 20000000007639,
    "name": "GÜLLÜK CD. MURATPAŞA ANTALYA M",
    "town": "Muratpaşa",
    "city": "Antalya",
    "address": "Üçgen Mh.Güllük Cad.Alay Müftüsü İşHanı No:80 /B",
    "lat": 36.89326,
    "lon": 30.693587
  },
  {
    "pickPointId": 2809,
    "storeId": 20000000003190,
    "name": "GÜZELOBA ANTALYA M MİGROS",
    "town": "Muratpaşa",
    "city": "Antalya",
    "address": "Güzeloba Mah. Alppaşa 1 İş Merkezi No:1/1",
    "lat": 36.85721,
    "lon": 30.788007
  },
  {
    "pickPointId": 1993,
    "storeId": 20000000005634,
    "name": "GÜZELOBA LARA ANTALYA MM",
    "town": "Muratpaşa",
    "city": "Antalya",
    "address": "Güzeloba Mah. Havaalanı Cad. Lara Çarşısı 72/A",
    "lat": 36.861997,
    "lon": 30.789562
  },
  {
    "pickPointId": 2810,
    "storeId": 20000000008635,
    "name": "GÜZELOBA PAZAR ANT M MİGROS",
    "town": "Muratpaşa",
    "city": "Antalya",
    "address": "Güzeloba Mah. Havaalanı Cad. No:64/6",
    "lat": 36.860567,
    "lon": 30.791344
  },
  {
    "pickPointId": 2364,
    "storeId": 20000000006037,
    "name": "KIZILSARAY MAH.ANTALYA M",
    "town": "Muratpaşa",
    "city": "Antalya",
    "address": "Kızılsaray Mah.88.Sok.No:6",
    "lat": 36.8906523,
    "lon": 30.6973331
  },